{"date": "2017-01-25T00:00:00", "time_series": [{"departure_lat": "-38.2158144726992", "name": "Waurn Ponds Railway Station (Waurn Ponds)", "arrival_lon": "144.35505671194", "arrival_time": "2017-01-25 04:37:00", "departure_lon": "144.30681939977", "arrival_lat": "-38.1985490047076", "id": "5830.T0.1-V23-D-mjp-1.22.R", "departure_time": "2017-01-25 04:32:00"}, {"departure_lat": "-38.1988849376845", "name": "Traralgon Railway Station (Traralgon)", "arrival_lon": "146.396753046002", "arrival_time": "2017-01-25 04:45:00", "departure_lon": "146.537882118369", "arrival_lat": "-38.2367187615524", "id": "5951.T0.1-V48-D-mjp-1.6.R", "departure_time": "2017-01-25 04:36:00"}, {"departure_lat": "-38.1985490047076", "name": "Marshall Railway Station (Marshall)", "arrival_lon": "144.358987047614", "arrival_time": "2017-01-25 04:42:00", "departure_lon": "144.35505671194", "arrival_lat": "-38.1586586335856", "id": "5830.T0.1-V23-D-mjp-1.22.R", "departure_time": "2017-01-25 04:37:00"}, {"departure_lat": "-38.1586586335856", "name": "South Geelong Railway Station (South Geelong)", "arrival_lon": "144.35498911182", "arrival_time": "2017-01-25 04:47:00", "departure_lon": "144.358987047614", "arrival_lat": "-38.1442421089254", "id": "5830.T0.1-V23-D-mjp-1.22.R", "departure_time": "2017-01-25 04:42:00"}, {"departure_lat": "-38.2367187615524", "name": "Morwell Railway Station (Morwell)", "arrival_lon": "146.262697151591", "arrival_time": "2017-01-25 04:55:00", "departure_lon": "146.396753046002", "arrival_lat": "-38.1767146401405", "id": "5951.T0.1-V48-D-mjp-1.6.R", "departure_time": "2017-01-25 04:45:00"}, {"departure_lat": "-38.1442421089254", "name": "Geelong Railway Station (Geelong)", "arrival_lon": "144.352271898836", "arrival_time": "2017-01-25 04:50:00", "departure_lon": "144.35498911182", "arrival_lat": "-38.1228352344324", "id": "5830.T0.1-V23-D-mjp-1.22.R", "departure_time": "2017-01-25 04:47:00"}, {"departure_lat": "-38.1228352344324", "name": "North Geelong Railway Station (North Geelong)", "arrival_lon": "144.365321419105", "arrival_time": "2017-01-25 04:53:00", "departure_lon": "144.352271898836", "arrival_lat": "-38.0983771352818", "id": "5830.T0.1-V23-D-mjp-1.22.R", "departure_time": "2017-01-25 04:50:00"}, {"departure_lat": "-38.0983771352818", "name": "North Shore Railway Station (North Shore)", "arrival_lon": "144.37976841879", "arrival_time": "2017-01-25 04:56:00", "departure_lon": "144.365321419105", "arrival_lat": "-38.0728312611647", "id": "5830.T0.1-V23-D-mjp-1.22.R", "departure_time": "2017-01-25 04:53:00"}, {"departure_lat": "-38.1767146401405", "name": "Moe Railway Station (Moe)", "arrival_lon": "146.154772842954", "arrival_time": "2017-01-25 05:01:00", "departure_lon": "146.262697151591", "arrival_lat": "-38.207242297018", "id": "5951.T0.1-V48-D-mjp-1.6.R", "departure_time": "2017-01-25 04:55:00"}, {"departure_lat": "-38.0728312611647", "name": "Corio Railway Station (Corio)", "arrival_lon": "144.414404294664", "arrival_time": "2017-01-25 05:00:00", "departure_lon": "144.37976841879", "arrival_lat": "-38.0224276368235", "id": "5830.T0.1-V23-D-mjp-1.22.R", "departure_time": "2017-01-25 04:56:00"}, {"departure_lat": "-37.6875782110303", "name": "Bacchus Marsh Railway Station (Maddingley)", "arrival_lon": "144.572524145218", "arrival_time": "2017-01-25 05:08:00", "departure_lon": "144.436785160486", "arrival_lat": "-37.7032933463858", "id": "6184.T0.1-V05-D-mjp-1.13.R", "departure_time": "2017-01-25 05:00:00"}, {"departure_lat": "-37.8183342913422", "name": "Southern Cross Railway Station (Melbourne City)", "arrival_lon": "144.902020057667", "arrival_time": "2017-01-25 05:07:00", "departure_lon": "144.952524867532", "arrival_lat": "-37.8014134330439", "id": "6073.T0.1-V23-D-mjp-1.1.H", "departure_time": "2017-01-25 05:00:00"}, {"departure_lat": "-38.0224276368235", "name": "Lara Railway Station (Lara)", "arrival_lon": "144.498484867674", "arrival_time": "2017-01-25 05:05:00", "departure_lon": "144.414404294664", "arrival_lat": "-37.9629290891698", "id": "5830.T0.1-V23-D-mjp-1.22.R", "departure_time": "2017-01-25 05:00:00"}, {"departure_lat": "-38.207242297018", "name": "Trafalgar Railway Station (Trafalgar)", "arrival_lon": "146.063062795324", "arrival_time": "2017-01-25 05:06:00", "departure_lon": "146.154772842954", "arrival_lat": "-38.2031575351164", "id": "5951.T0.1-V48-D-mjp-1.6.R", "departure_time": "2017-01-25 05:01:00"}, {"departure_lat": "-37.9629290891698", "name": "Little River Railway Station (Little River)", "arrival_lon": "144.60847208057", "arrival_time": "2017-01-25 05:13:00", "departure_lon": "144.498484867674", "arrival_lat": "-37.8717818287661", "id": "5830.T0.1-V23-D-mjp-1.22.R", "departure_time": "2017-01-25 05:05:00"}, {"departure_lat": "-38.2031575351164", "name": "Yarragon Railway Station (Yarragon)", "arrival_lon": "145.933085250289", "arrival_time": "2017-01-25 05:14:00", "departure_lon": "146.063062795324", "arrival_lat": "-38.1652241762333", "id": "5951.T0.1-V48-D-mjp-1.6.R", "departure_time": "2017-01-25 05:06:00"}, {"departure_lat": "-36.7656697308233", "name": "Bendigo Railway Station (Bendigo)", "arrival_lon": "144.248990162653", "arrival_time": "2017-01-25 05:11:00", "departure_lon": "144.283008928886", "arrival_lat": "-36.7948336350696", "id": "5984.T0.1-V12-D-mjp-1.13.R", "departure_time": "2017-01-25 05:07:00"}, {"departure_lat": "-37.8014134330439", "name": "Footscray Railway Station (Footscray)", "arrival_lon": "144.832878204953", "arrival_time": "2017-01-25 05:13:00", "departure_lon": "144.902020057667", "arrival_lat": "-37.7885363319246", "id": "6073.T0.1-V23-D-mjp-1.1.H", "departure_time": "2017-01-25 05:07:00"}, {"departure_lat": "-37.7032933463858", "name": "Melton Railway Station (Melton South)", "arrival_lon": "144.650631483984", "arrival_time": "2017-01-25 05:12:00", "departure_lon": "144.572524145218", "arrival_lat": "-37.7292612709136", "id": "6184.T0.1-V05-D-mjp-1.13.R", "departure_time": "2017-01-25 05:08:00"}, {"departure_lat": "-37.8183342913422", "name": "Southern Cross Railway Station (Melbourne City)", "arrival_lon": "144.902020057667", "arrival_time": "2017-01-25 05:18:00", "departure_lon": "144.952524867532", "arrival_lat": "-37.8014134330439", "id": "6018.T0.1-V05-D-mjp-1.1.H", "departure_time": "2017-01-25 05:10:00"}, {"departure_lat": "-36.7948336350696", "name": "Kangaroo Flat Railway Station (Kangaroo Flat)", "arrival_lon": "144.213799025491", "arrival_time": "2017-01-25 05:28:00", "departure_lon": "144.248990162653", "arrival_lat": "-37.0628374463184", "id": "5984.T0.1-V12-D-mjp-1.13.R", "departure_time": "2017-01-25 05:11:00"}, {"departure_lat": "-37.7292612709136", "name": "Rockbank Railway Station (Rockbank)", "arrival_lon": "144.772303608804", "arrival_time": "2017-01-25 05:19:00", "departure_lon": "144.650631483984", "arrival_lat": "-37.7777637471456", "id": "6184.T0.1-V05-D-mjp-1.13.R", "departure_time": "2017-01-25 05:12:00"}, {"departure_lat": "-37.5400850057193", "name": "Wendouree Railway Station (Wendouree)", "arrival_lon": "143.859457427766", "arrival_time": "2017-01-25 05:19:00", "departure_lon": "143.822054600905", "arrival_lat": "-37.5587914823897", "id": "6185.T0.1-V05-D-mjp-1.14.R", "departure_time": "2017-01-25 05:12:00"}, {"departure_lat": "-37.7885363319246", "name": "Sunshine Railway Station (Sunshine)", "arrival_lon": "144.772303608804", "arrival_time": "2017-01-25 05:17:00", "departure_lon": "144.832878204953", "arrival_lat": "-37.7777637471456", "id": "6073.T0.1-V23-D-mjp-1.1.H", "departure_time": "2017-01-25 05:13:00"}, {"departure_lat": "-37.8717818287661", "name": "Wyndham Vale Railway Station (Wyndham Vale)", "arrival_lon": "144.694714384216", "arrival_time": "2017-01-25 05:19:00", "departure_lon": "144.60847208057", "arrival_lat": "-37.8321681307146", "id": "5830.T0.1-V23-D-mjp-1.22.R", "departure_time": "2017-01-25 05:13:00"}, {"departure_lat": "-38.1985490047076", "name": "Marshall Railway Station (Marshall)", "arrival_lon": "144.358987047614", "arrival_time": "2017-01-25 05:18:00", "departure_lon": "144.35505671194", "arrival_lat": "-38.1586586335856", "id": "5831.T0.1-V23-D-mjp-1.23.R", "departure_time": "2017-01-25 05:13:00"}, {"departure_lat": "-38.1652241762333", "name": "Warragul Railway Station (Warragul)", "arrival_lon": "145.85594693234", "arrival_time": "2017-01-25 05:19:00", "departure_lon": "145.933085250289", "arrival_lat": "-38.1364519002868", "id": "5951.T0.1-V48-D-mjp-1.6.R", "departure_time": "2017-01-25 05:14:00"}, {"departure_lat": "-36.3837910130908", "name": "Shepparton Railway Station (Shepparton)", "arrival_lon": "145.358214835679", "arrival_time": "2017-01-25 05:22:00", "departure_lon": "145.40649748504", "arrival_lat": "-36.3991282818457", "id": "5324.T0.1-Sht-D-mjp-1.1.H", "departure_time": "2017-01-25 05:15:00"}, {"departure_lat": "-37.0247287252427", "name": "Seymour Railway Station (Seymour)", "arrival_lon": "145.102997284521", "arrival_time": "2017-01-25 05:21:00", "departure_lon": "145.137728616954", "arrival_lat": "-37.0923345407483", "id": "6155.T0.1-V40-D-mjp-1.5.R", "departure_time": "2017-01-25 05:15:00"}, {"departure_lat": "-37.7777637471456", "name": "Deer Park Railway Station (Deer Park)", "arrival_lon": "144.694714384216", "arrival_time": "2017-01-25 05:25:00", "departure_lon": "144.772303608804", "arrival_lat": "-37.8321681307146", "id": "6073.T0.1-V23-D-mjp-1.1.H", "departure_time": "2017-01-25 05:17:00"}, {"departure_lat": "-37.8014134330439", "name": "Footscray Railway Station (Footscray)", "arrival_lon": "144.832878204953", "arrival_time": "2017-01-25 05:24:00", "departure_lon": "144.902020057667", "arrival_lat": "-37.7885363319246", "id": "6018.T0.1-V05-D-mjp-1.1.H", "departure_time": "2017-01-25 05:18:00"}, {"departure_lat": "-37.2582788509932", "name": "Kyneton Railway Station (Kyneton)", "arrival_lon": "144.525890123295", "arrival_time": "2017-01-25 05:26:00", "departure_lon": "144.450601588246", "arrival_lat": "-37.3587985943757", "id": "5983.T0.1-V12-D-mjp-1.12.R", "departure_time": "2017-01-25 05:18:00"}, {"departure_lat": "-38.1586586335856", "name": "South Geelong Railway Station (South Geelong)", "arrival_lon": "144.35498911182", "arrival_time": "2017-01-25 05:23:00", "departure_lon": "144.358987047614", "arrival_lat": "-38.1442421089254", "id": "5831.T0.1-V23-D-mjp-1.23.R", "departure_time": "2017-01-25 05:18:00"}, {"departure_lat": "-37.7777637471456", "name": "Deer Park Railway Station (Deer Park)", "arrival_lon": "144.802188066669", "arrival_time": "2017-01-25 05:22:00", "departure_lon": "144.772303608804", "arrival_lat": "-37.7830652929363", "id": "6184.T0.1-V05-D-mjp-1.13.R", "departure_time": "2017-01-25 05:19:00"}, {"departure_lat": "-37.5587914823897", "name": "Ballarat Railway Station (Ballarat Central)", "arrival_lon": "144.225448027583", "arrival_time": "2017-01-25 05:36:00", "departure_lon": "143.859457427766", "arrival_lat": "-37.6042995115262", "id": "6185.T0.1-V05-D-mjp-1.14.R", "departure_time": "2017-01-25 05:19:00"}, {"departure_lat": "-37.8321681307146", "name": "Tarneit Railway Station (Tarneit)", "arrival_lon": "144.832878204953", "arrival_time": "2017-01-25 05:34:00", "departure_lon": "144.694714384216", "arrival_lat": "-37.7885363319246", "id": "5830.T0.1-V23-D-mjp-1.22.R", "departure_time": "2017-01-25 05:19:00"}, {"departure_lat": "-38.1364519002868", "name": "Drouin Railway Station (Drouin)", "arrival_lon": "145.766860285292", "arrival_time": "2017-01-25 05:25:00", "departure_lon": "145.85594693234", "arrival_lat": "-38.1109921063784", "id": "5951.T0.1-V48-D-mjp-1.6.R", "departure_time": "2017-01-25 05:19:00"}, {"departure_lat": "-37.0923345407483", "name": "Tallarook Railway Station (Tallarook)", "arrival_lon": "145.043007902139", "arrival_time": "2017-01-25 05:31:00", "departure_lon": "145.102997284521", "arrival_lat": "-37.2072004909244", "id": "6155.T0.1-V40-D-mjp-1.5.R", "departure_time": "2017-01-25 05:21:00"}, {"departure_lat": "-36.3991282818457", "name": "Mooroopna Railway Station (Mooroopna)", "arrival_lon": "145.240635561978", "arrival_time": "2017-01-25 05:43:00", "departure_lon": "145.358214835679", "arrival_lat": "-36.6131479408411", "id": "5324.T0.1-Sht-D-mjp-1.1.H", "departure_time": "2017-01-25 05:22:00"}, {"departure_lat": "-37.7830652929363", "name": "Ardeer Railway Station (Ardeer)", "arrival_lon": "144.832878204953", "arrival_time": "2017-01-25 05:28:00", "departure_lon": "144.802188066669", "arrival_lat": "-37.7885363319246", "id": "6184.T0.1-V05-D-mjp-1.13.R", "departure_time": "2017-01-25 05:22:00"}, {"departure_lat": "-38.1442421089254", "name": "Geelong Railway Station (Geelong)", "arrival_lon": "144.352271898836", "arrival_time": "2017-01-25 05:26:00", "departure_lon": "144.35498911182", "arrival_lat": "-38.1228352344324", "id": "5831.T0.1-V23-D-mjp-1.23.R", "departure_time": "2017-01-25 05:23:00"}, {"departure_lat": "-37.7885363319246", "name": "Sunshine Railway Station (Sunshine)", "arrival_lon": "144.802188066669", "arrival_time": "2017-01-25 05:27:00", "departure_lon": "144.832878204953", "arrival_lat": "-37.7830652929363", "id": "6018.T0.1-V05-D-mjp-1.1.H", "departure_time": "2017-01-25 05:24:00"}, {"departure_lat": "-37.8321681307146", "name": "Tarneit Railway Station (Tarneit)", "arrival_lon": "144.60847208057", "arrival_time": "2017-01-25 05:31:00", "departure_lon": "144.694714384216", "arrival_lat": "-37.8717818287661", "id": "6073.T0.1-V23-D-mjp-1.1.H", "departure_time": "2017-01-25 05:25:00"}, {"departure_lat": "-38.1109921063784", "name": "Longwarry Railway Station (Longwarry)", "arrival_lon": "145.7207574905", "arrival_time": "2017-01-25 05:29:00", "departure_lon": "145.766860285292", "arrival_lat": "-38.0991077095814", "id": "5951.T0.1-V48-D-mjp-1.6.R", "departure_time": "2017-01-25 05:25:00"}, {"departure_lat": "-37.3587985943757", "name": "Woodend Railway Station (Woodend)", "arrival_lon": "144.561396853042", "arrival_time": "2017-01-25 05:32:00", "departure_lon": "144.525890123295", "arrival_lat": "-37.4235733109544", "id": "5983.T0.1-V12-D-mjp-1.12.R", "departure_time": "2017-01-25 05:26:00"}, {"departure_lat": "-38.1228352344324", "name": "North Geelong Railway Station (North Geelong)", "arrival_lon": "144.365321419105", "arrival_time": "2017-01-25 05:29:00", "departure_lon": "144.352271898836", "arrival_lat": "-38.0983771352818", "id": "5831.T0.1-V23-D-mjp-1.23.R", "departure_time": "2017-01-25 05:26:00"}, {"departure_lat": "-37.8183342913422", "name": "Southern Cross Railway Station (Melbourne City)", "arrival_lon": "144.966964346166", "arrival_time": "2017-01-25 05:35:00", "departure_lon": "144.952524867532", "arrival_lat": "-37.8183051340585", "id": "5629.T0.1-vPK-D-mjp-1.3.R", "departure_time": "2017-01-25 05:26:00"}, {"departure_lat": "-37.7830652929363", "name": "Ardeer Railway Station (Ardeer)", "arrival_lon": "144.772303608804", "arrival_time": "2017-01-25 05:30:00", "departure_lon": "144.802188066669", "arrival_lat": "-37.7777637471456", "id": "6018.T0.1-V05-D-mjp-1.1.H", "departure_time": "2017-01-25 05:27:00"}, {"departure_lat": "-38.1988849376845", "name": "Traralgon Railway Station (Traralgon)", "arrival_lon": "146.396753046002", "arrival_time": "2017-01-25 05:35:00", "departure_lon": "146.537882118369", "arrival_lat": "-38.2367187615524", "id": "5952.T0.1-V48-D-mjp-1.7.R", "departure_time": "2017-01-25 05:27:00"}, {"departure_lat": "-37.7885363319246", "name": "Sunshine Railway Station (Sunshine)", "arrival_lon": "144.902020057667", "arrival_time": "2017-01-25 05:33:00", "departure_lon": "144.832878204953", "arrival_lat": "-37.8014134330439", "id": "6184.T0.1-V05-D-mjp-1.13.R", "departure_time": "2017-01-25 05:28:00"}, {"departure_lat": "-37.0628374463184", "name": "Castlemaine Railway Station (Castlemaine)", "arrival_lon": "144.375323170241", "arrival_time": "2017-01-25 05:40:00", "departure_lon": "144.213799025491", "arrival_lat": "-37.1897403219827", "id": "5984.T0.1-V12-D-mjp-1.13.R", "departure_time": "2017-01-25 05:28:00"}, {"departure_lat": "-38.0983771352818", "name": "North Shore Railway Station (North Shore)", "arrival_lon": "144.37976841879", "arrival_time": "2017-01-25 05:31:00", "departure_lon": "144.365321419105", "arrival_lat": "-38.0728312611647", "id": "5831.T0.1-V23-D-mjp-1.23.R", "departure_time": "2017-01-25 05:29:00"}, {"departure_lat": "-38.0991077095814", "name": "Bunyip Railway Station (Bunyip)", "arrival_lon": "145.674224718789", "arrival_time": "2017-01-25 05:33:00", "departure_lon": "145.7207574905", "arrival_lat": "-38.0910306197666", "id": "5951.T0.1-V48-D-mjp-1.6.R", "departure_time": "2017-01-25 05:29:00"}, {"departure_lat": "-37.7777637471456", "name": "Deer Park Railway Station (Deer Park)", "arrival_lon": "144.650631483984", "arrival_time": "2017-01-25 05:41:00", "departure_lon": "144.772303608804", "arrival_lat": "-37.7292612709136", "id": "6018.T0.1-V05-D-mjp-1.1.H", "departure_time": "2017-01-25 05:30:00"}, {"departure_lat": "-38.2158144726992", "name": "Waurn Ponds Railway Station (Waurn Ponds)", "arrival_lon": "144.35505671194", "arrival_time": "2017-01-25 05:36:00", "departure_lon": "144.30681939977", "arrival_lat": "-38.1985490047076", "id": "5832.T0.1-V23-D-mjp-1.24.R", "departure_time": "2017-01-25 05:30:00"}, {"departure_lat": "-36.7185253927456", "name": "Eaglehawk Railway Station (Eaglehawk)", "arrival_lon": "144.283008928886", "arrival_time": "2017-01-25 05:41:00", "departure_lon": "144.248379897507", "arrival_lat": "-36.7656697308233", "id": "5985.T0.1-V12-D-mjp-1.14.R", "departure_time": "2017-01-25 05:31:00"}, {"departure_lat": "-37.8717818287661", "name": "Wyndham Vale Railway Station (Wyndham Vale)", "arrival_lon": "144.498484867674", "arrival_time": "2017-01-25 05:38:00", "departure_lon": "144.60847208057", "arrival_lat": "-37.9629290891698", "id": "6073.T0.1-V23-D-mjp-1.1.H", "departure_time": "2017-01-25 05:31:00"}, {"departure_lat": "-38.0728312611647", "name": "Corio Railway Station (Corio)", "arrival_lon": "144.414404294664", "arrival_time": "2017-01-25 05:36:00", "departure_lon": "144.37976841879", "arrival_lat": "-38.0224276368235", "id": "5831.T0.1-V23-D-mjp-1.23.R", "departure_time": "2017-01-25 05:31:00"}, {"departure_lat": "-37.2072004909244", "name": "Broadford Railway Station (Broadford)", "arrival_lon": "144.983565994661", "arrival_time": "2017-01-25 05:38:00", "departure_lon": "145.043007902139", "arrival_lat": "-37.2932102740322", "id": "6155.T0.1-V40-D-mjp-1.5.R", "departure_time": "2017-01-25 05:31:00"}, {"departure_lat": "-37.4235733109544", "name": "Macedon Railway Station (Macedon)", "arrival_lon": "144.598721566871", "arrival_time": "2017-01-25 05:36:00", "departure_lon": "144.561396853042", "arrival_lat": "-37.4588254969165", "id": "5983.T0.1-V12-D-mjp-1.12.R", "departure_time": "2017-01-25 05:32:00"}, {"departure_lat": "-37.8014134330439", "name": "Footscray Railway Station (Footscray)", "arrival_lon": "144.952524867532", "arrival_time": "2017-01-25 05:42:00", "departure_lon": "144.902020057667", "arrival_lat": "-37.8183342913422", "id": "6184.T0.1-V05-D-mjp-1.13.R", "departure_time": "2017-01-25 05:33:00"}, {"departure_lat": "-38.0910306197666", "name": "Garfield Railway Station (Garfield)", "arrival_lon": "145.628234301935", "arrival_time": "2017-01-25 05:37:00", "departure_lon": "145.674224718789", "arrival_lat": "-38.0849962573238", "id": "5951.T0.1-V48-D-mjp-1.6.R", "departure_time": "2017-01-25 05:33:00"}, {"departure_lat": "-37.7885363319246", "name": "Sunshine Railway Station (Sunshine)", "arrival_lon": "144.902020057667", "arrival_time": "2017-01-25 05:40:00", "departure_lon": "144.832878204953", "arrival_lat": "-37.8014134330439", "id": "5830.T0.1-V23-D-mjp-1.22.R", "departure_time": "2017-01-25 05:34:00"}, {"departure_lat": "-38.2367187615524", "name": "Morwell Railway Station (Morwell)", "arrival_lon": "146.262697151591", "arrival_time": "2017-01-25 05:45:00", "departure_lon": "146.396753046002", "arrival_lat": "-38.1767146401405", "id": "5952.T0.1-V48-D-mjp-1.7.R", "departure_time": "2017-01-25 05:35:00"}, {"departure_lat": "-37.8183051340585", "name": "Flinders Street Railway Station (Melbourne City)", "arrival_lon": "145.042524781036", "arrival_time": "2017-01-25 05:47:00", "departure_lon": "144.966964346166", "arrival_lat": "-37.8774594614914", "id": "5629.T0.1-vPK-D-mjp-1.3.R", "departure_time": "2017-01-25 05:35:00"}, {"departure_lat": "-37.6042995115262", "name": "Ballan Railway Station (Ballan)", "arrival_lon": "144.436785160486", "arrival_time": "2017-01-25 05:53:00", "departure_lon": "144.225448027583", "arrival_lat": "-37.6875782110303", "id": "6185.T0.1-V05-D-mjp-1.14.R", "departure_time": "2017-01-25 05:36:00"}, {"departure_lat": "-37.4588254969165", "name": "Gisborne Railway Station (New Gisborne)", "arrival_lon": "144.679830706708", "arrival_time": "2017-01-25 05:41:00", "departure_lon": "144.598721566871", "arrival_lat": "-37.4651237881784", "id": "5983.T0.1-V12-D-mjp-1.12.R", "departure_time": "2017-01-25 05:36:00"}, {"departure_lat": "-38.0224276368235", "name": "Lara Railway Station (Lara)", "arrival_lon": "144.498484867674", "arrival_time": "2017-01-25 05:43:00", "departure_lon": "144.414404294664", "arrival_lat": "-37.9629290891698", "id": "5831.T0.1-V23-D-mjp-1.23.R", "departure_time": "2017-01-25 05:36:00"}, {"departure_lat": "-38.1985490047076", "name": "Marshall Railway Station (Marshall)", "arrival_lon": "144.358987047614", "arrival_time": "2017-01-25 05:40:00", "departure_lon": "144.35505671194", "arrival_lat": "-38.1586586335856", "id": "5832.T0.1-V23-D-mjp-1.24.R", "departure_time": "2017-01-25 05:36:00"}, {"departure_lat": "-38.0849962573238", "name": "Tynong Railway Station (Tynong)", "arrival_lon": "145.571665727089", "arrival_time": "2017-01-25 05:41:00", "departure_lon": "145.628234301935", "arrival_lat": "-38.0815915533358", "id": "5951.T0.1-V48-D-mjp-1.6.R", "departure_time": "2017-01-25 05:37:00"}, {"departure_lat": "-37.9629290891698", "name": "Little River Railway Station (Little River)", "arrival_lon": "144.414404294664", "arrival_time": "2017-01-25 05:44:00", "departure_lon": "144.498484867674", "arrival_lat": "-38.0224276368235", "id": "6073.T0.1-V23-D-mjp-1.1.H", "departure_time": "2017-01-25 05:38:00"}, {"departure_lat": "-37.2932102740322", "name": "Kilmore East Railway Station (Kilmore East)", "arrival_lon": "145.026415443751", "arrival_time": "2017-01-25 05:45:00", "departure_lon": "144.983565994661", "arrival_lat": "-37.3546770982659", "id": "6155.T0.1-V40-D-mjp-1.5.R", "departure_time": "2017-01-25 05:38:00"}, {"departure_lat": "-37.1897403219827", "name": "Malmsbury Railway Station (Malmsbury)", "arrival_lon": "144.450601588246", "arrival_time": "2017-01-25 05:48:00", "departure_lon": "144.375323170241", "arrival_lat": "-37.2582788509932", "id": "5984.T0.1-V12-D-mjp-1.13.R", "departure_time": "2017-01-25 05:40:00"}, {"departure_lat": "-37.8014134330439", "name": "Footscray Railway Station (Footscray)", "arrival_lon": "144.952524867532", "arrival_time": "2017-01-25 05:49:00", "departure_lon": "144.902020057667", "arrival_lat": "-37.8183342913422", "id": "5830.T0.1-V23-D-mjp-1.22.R", "departure_time": "2017-01-25 05:40:00"}, {"departure_lat": "-38.1586586335856", "name": "South Geelong Railway Station (South Geelong)", "arrival_lon": "144.35498911182", "arrival_time": "2017-01-25 05:45:00", "departure_lon": "144.358987047614", "arrival_lat": "-38.1442421089254", "id": "5832.T0.1-V23-D-mjp-1.24.R", "departure_time": "2017-01-25 05:40:00"}, {"departure_lat": "-37.7292612709136", "name": "Rockbank Railway Station (Rockbank)", "arrival_lon": "144.572524145218", "arrival_time": "2017-01-25 05:46:00", "departure_lon": "144.650631483984", "arrival_lat": "-37.7032933463858", "id": "6018.T0.1-V05-D-mjp-1.1.H", "departure_time": "2017-01-25 05:41:00"}, {"departure_lat": "-37.4651237881784", "name": "Riddells Creek Railway Station (Riddells Creek)", "arrival_lon": "144.745372643394", "arrival_time": "2017-01-25 05:46:00", "departure_lon": "144.679830706708", "arrival_lat": "-37.4834976919689", "id": "5983.T0.1-V12-D-mjp-1.12.R", "departure_time": "2017-01-25 05:41:00"}, {"departure_lat": "-36.7656697308233", "name": "Bendigo Railway Station (Bendigo)", "arrival_lon": "144.248990162653", "arrival_time": "2017-01-25 05:45:00", "departure_lon": "144.283008928886", "arrival_lat": "-36.7948336350696", "id": "5985.T0.1-V12-D-mjp-1.14.R", "departure_time": "2017-01-25 05:41:00"}, {"departure_lat": "-38.0815915533358", "name": "Nar Nar Goon Railway Station (Nar Nar Goon)", "arrival_lon": "145.486367676332", "arrival_time": "2017-01-25 05:49:00", "departure_lon": "145.571665727089", "arrival_lat": "-38.0806138269723", "id": "5951.T0.1-V48-D-mjp-1.6.R", "departure_time": "2017-01-25 05:41:00"}, {"departure_lat": "-37.8183342913422", "name": "Southern Cross Railway Station (Melbourne City)", "arrival_lon": null, "arrival_time": null, "departure_lon": "144.952524867532", "arrival_lat": null, "id": "6184.T0.1-V05-D-mjp-1.13.R", "departure_time": "2017-01-25 05:42:00"}, {"departure_lat": "-36.6131479408411", "name": "Murchison East Railway Station (Murchison East)", "arrival_lon": "145.160356658346", "arrival_time": "2017-01-25 05:58:00", "departure_lon": "145.240635561978", "arrival_lat": "-36.7854641001148", "id": "5324.T0.1-Sht-D-mjp-1.1.H", "departure_time": "2017-01-25 05:43:00"}, {"departure_lat": "-37.9629290891698", "name": "Little River Railway Station (Little River)", "arrival_lon": "144.60847208057", "arrival_time": "2017-01-25 05:53:00", "departure_lon": "144.498484867674", "arrival_lat": "-37.8717818287661", "id": "5831.T0.1-V23-D-mjp-1.23.R", "departure_time": "2017-01-25 05:43:00"}, {"departure_lat": "-38.0224276368235", "name": "Lara Railway Station (Lara)", "arrival_lon": "144.37976841879", "arrival_time": "2017-01-25 05:48:00", "departure_lon": "144.414404294664", "arrival_lat": "-38.0728312611647", "id": "6073.T0.1-V23-D-mjp-1.1.H", "departure_time": "2017-01-25 05:44:00"}, {"departure_lat": "-36.7948336350696", "name": "Kangaroo Flat Railway Station (Kangaroo Flat)", "arrival_lon": "144.213799025491", "arrival_time": "2017-01-25 06:02:00", "departure_lon": "144.248990162653", "arrival_lat": "-37.0628374463184", "id": "5985.T0.1-V12-D-mjp-1.14.R", "departure_time": "2017-01-25 05:45:00"}, {"departure_lat": "-38.1442421089254", "name": "Geelong Railway Station (Geelong)", "arrival_lon": "144.352271898836", "arrival_time": "2017-01-25 05:48:00", "departure_lon": "144.35498911182", "arrival_lat": "-38.1228352344324", "id": "5832.T0.1-V23-D-mjp-1.24.R", "departure_time": "2017-01-25 05:45:00"}, {"departure_lat": "-37.3546770982659", "name": "Wandong Railway Station (Wandong)", "arrival_lon": "145.026310472064", "arrival_time": "2017-01-25 05:47:00", "departure_lon": "145.026415443751", "arrival_lat": "-37.3677343958931", "id": "6155.T0.1-V40-D-mjp-1.5.R", "departure_time": "2017-01-25 05:45:00"}, {"departure_lat": "-38.1767146401405", "name": "Moe Railway Station (Moe)", "arrival_lon": "145.933085250289", "arrival_time": "2017-01-25 06:00:00", "departure_lon": "146.262697151591", "arrival_lat": "-38.1652241762333", "id": "5952.T0.1-V48-D-mjp-1.7.R", "departure_time": "2017-01-25 05:45:00"}, {"departure_lat": "-37.7032933463858", "name": "Melton Railway Station (Melton South)", "arrival_lon": "144.225448027583", "arrival_time": "2017-01-25 06:17:00", "departure_lon": "144.572524145218", "arrival_lat": "-37.6042995115262", "id": "6018.T0.1-V05-D-mjp-1.1.H", "departure_time": "2017-01-25 05:46:00"}, {"departure_lat": "-37.4834976919689", "name": "Clarkefield Railway Station (Clarkefield)", "arrival_lon": "144.72816450831", "arrival_time": "2017-01-25 05:57:00", "departure_lon": "144.745372643394", "arrival_lat": "-37.5792063872414", "id": "5983.T0.1-V12-D-mjp-1.12.R", "departure_time": "2017-01-25 05:46:00"}, {"departure_lat": "-37.3677343958931", "name": "Heathcote Junction Railway Station (Heathcote Junction)", "arrival_lon": "145.005372256037", "arrival_time": "2017-01-25 05:52:00", "departure_lon": "145.026310472064", "arrival_lat": "-37.4168610028693", "id": "6155.T0.1-V40-D-mjp-1.5.R", "departure_time": "2017-01-25 05:47:00"}, {"departure_lat": "-37.8774594614914", "name": "Caulfield Railway Station (Caulfield East)", "arrival_lon": "145.209725368166", "arrival_time": "2017-01-25 06:16:00", "departure_lon": "145.042524781036", "arrival_lat": "-37.9899679153812", "id": "5629.T0.1-vPK-D-mjp-1.3.R", "departure_time": "2017-01-25 05:47:00"}, {"departure_lat": "-37.2582788509932", "name": "Kyneton Railway Station (Kyneton)", "arrival_lon": "144.525890123295", "arrival_time": "2017-01-25 05:56:00", "departure_lon": "144.450601588246", "arrival_lat": "-37.3587985943757", "id": "5984.T0.1-V12-D-mjp-1.13.R", "departure_time": "2017-01-25 05:48:00"}, {"departure_lat": "-38.0728312611647", "name": "Corio Railway Station (Corio)", "arrival_lon": "144.365321419105", "arrival_time": "2017-01-25 05:51:00", "departure_lon": "144.37976841879", "arrival_lat": "-38.0983771352818", "id": "6073.T0.1-V23-D-mjp-1.1.H", "departure_time": "2017-01-25 05:48:00"}, {"departure_lat": "-38.1228352344324", "name": "North Geelong Railway Station (North Geelong)", "arrival_lon": "144.414404294664", "arrival_time": "2017-01-25 05:56:00", "departure_lon": "144.352271898836", "arrival_lat": "-38.0224276368235", "id": "5832.T0.1-V23-D-mjp-1.24.R", "departure_time": "2017-01-25 05:48:00"}, {"departure_lat": "-37.8183342913422", "name": "Southern Cross Railway Station (Melbourne City)", "arrival_lon": null, "arrival_time": null, "departure_lon": "144.952524867532", "arrival_lat": null, "id": "5830.T0.1-V23-D-mjp-1.22.R", "departure_time": "2017-01-25 05:49:00"}, {"departure_lat": "-38.0806138269723", "name": "Pakenham Railway Station (Pakenham)", "arrival_lon": "145.209725368166", "arrival_time": "2017-01-25 06:06:00", "departure_lon": "145.486367676332", "arrival_lat": "-37.9899679153812", "id": "5951.T0.1-V48-D-mjp-1.6.R", "departure_time": "2017-01-25 05:49:00"}, {"departure_lat": "-37.0247287252427", "name": "Seymour Railway Station (Seymour)", "arrival_lon": "145.102997284521", "arrival_time": "2017-01-25 05:56:00", "departure_lon": "145.137728616954", "arrival_lat": "-37.0923345407483", "id": "6156.T0.1-V40-D-mjp-1.5.R", "departure_time": "2017-01-25 05:50:00"}, {"departure_lat": "-38.0983771352818", "name": "North Shore Railway Station (North Shore)", "arrival_lon": "144.352271898836", "arrival_time": "2017-01-25 05:55:00", "departure_lon": "144.365321419105", "arrival_lat": "-38.1228352344324", "id": "6073.T0.1-V23-D-mjp-1.1.H", "departure_time": "2017-01-25 05:51:00"}, {"departure_lat": "-38.1985490047076", "name": "Marshall Railway Station (Marshall)", "arrival_lon": "144.358987047614", "arrival_time": "2017-01-25 05:57:00", "departure_lon": "144.35505671194", "arrival_lat": "-38.1586586335856", "id": "5833.T0.1-V23-D-mjp-1.25.R", "departure_time": "2017-01-25 05:52:00"}, {"departure_lat": "-37.4168610028693", "name": "Wallan Railway Station (Wallan)", "arrival_lon": "144.969860118554", "arrival_time": "2017-01-25 06:00:00", "departure_lon": "145.005372256037", "arrival_lat": "-37.5425895208628", "id": "6155.T0.1-V40-D-mjp-1.5.R", "departure_time": "2017-01-25 05:52:00"}, {"departure_lat": "-37.6875782110303", "name": "Bacchus Marsh Railway Station (Maddingley)", "arrival_lon": "144.572524145218", "arrival_time": "2017-01-25 06:01:00", "departure_lon": "144.436785160486", "arrival_lat": "-37.7032933463858", "id": "6185.T0.1-V05-D-mjp-1.14.R", "departure_time": "2017-01-25 05:53:00"}, {"departure_lat": "-37.8717818287661", "name": "Wyndham Vale Railway Station (Wyndham Vale)", "arrival_lon": "144.694714384216", "arrival_time": "2017-01-25 06:01:00", "departure_lon": "144.60847208057", "arrival_lat": "-37.8321681307146", "id": "5831.T0.1-V23-D-mjp-1.23.R", "departure_time": "2017-01-25 05:53:00"}, {"departure_lat": "-38.1228352344324", "name": "North Geelong Railway Station (North Geelong)", "arrival_lon": "144.35498911182", "arrival_time": "2017-01-25 06:01:00", "departure_lon": "144.352271898836", "arrival_lat": "-38.1442421089254", "id": "6073.T0.1-V23-D-mjp-1.1.H", "departure_time": "2017-01-25 05:55:00"}, {"departure_lat": "-37.3587985943757", "name": "Woodend Railway Station (Woodend)", "arrival_lon": "144.561396853042", "arrival_time": "2017-01-25 06:02:00", "departure_lon": "144.525890123295", "arrival_lat": "-37.4235733109544", "id": "5984.T0.1-V12-D-mjp-1.13.R", "departure_time": "2017-01-25 05:56:00"}, {"departure_lat": "-38.0224276368235", "name": "Lara Railway Station (Lara)", "arrival_lon": "144.498484867674", "arrival_time": "2017-01-25 06:03:00", "departure_lon": "144.414404294664", "arrival_lat": "-37.9629290891698", "id": "5832.T0.1-V23-D-mjp-1.24.R", "departure_time": "2017-01-25 05:56:00"}, {"departure_lat": "-37.0923345407483", "name": "Tallarook Railway Station (Tallarook)", "arrival_lon": "145.043007902139", "arrival_time": "2017-01-25 06:06:00", "departure_lon": "145.102997284521", "arrival_lat": "-37.2072004909244", "id": "6156.T0.1-V40-D-mjp-1.5.R", "departure_time": "2017-01-25 05:56:00"}, {"departure_lat": "-37.5792063872414", "name": "Sunbury Railway Station (Sunbury)", "arrival_lon": "144.902020057667", "arrival_time": "2017-01-25 06:20:00", "departure_lon": "144.72816450831", "arrival_lat": "-37.8014134330439", "id": "5983.T0.1-V12-D-mjp-1.12.R", "departure_time": "2017-01-25 05:57:00"}, {"departure_lat": "-38.1586586335856", "name": "South Geelong Railway Station (South Geelong)", "arrival_lon": "144.35498911182", "arrival_time": "2017-01-25 06:02:00", "departure_lon": "144.358987047614", "arrival_lat": "-38.1442421089254", "id": "5833.T0.1-V23-D-mjp-1.25.R", "departure_time": "2017-01-25 05:57:00"}, {"departure_lat": "-38.1988849376845", "name": "Traralgon Railway Station (Traralgon)", "arrival_lon": "146.396753046002", "arrival_time": "2017-01-25 06:06:00", "departure_lon": "146.537882118369", "arrival_lat": "-38.2367187615524", "id": "5953.T0.1-V48-D-mjp-1.6.R", "departure_time": "2017-01-25 05:57:00"}, {"departure_lat": "-36.7854641001148", "name": "Nagambie Railway Station (Nagambie)", "arrival_lon": "145.137728616954", "arrival_time": "2017-01-25 06:20:00", "departure_lon": "145.160356658346", "arrival_lat": "-37.0247287252427", "id": "5324.T0.1-Sht-D-mjp-1.1.H", "departure_time": "2017-01-25 05:58:00"}, {"departure_lat": "-36.706341584195", "name": "Epsom Railway Station (Epsom)", "arrival_lon": "144.283008928886", "arrival_time": "2017-01-25 06:08:00", "departure_lon": "144.321039539468", "arrival_lat": "-36.7656697308233", "id": "5986.T0.1-V12-D-mjp-1.15.R", "departure_time": "2017-01-25 05:58:00"}, {"departure_lat": "-37.8183342913422", "name": "Southern Cross Railway Station (Melbourne City)", "arrival_lon": "144.902020057667", "arrival_time": "2017-01-25 06:07:00", "departure_lon": "144.952524867532", "arrival_lat": "-37.8014134330439", "id": "6074.T0.1-V23-D-mjp-1.2.H", "departure_time": "2017-01-25 06:00:00"}, {"departure_lat": "-37.5425895208628", "name": "Donnybrook Railway Station (Donnybrook)", "arrival_lon": "144.919613216031", "arrival_time": "2017-01-25 06:13:00", "departure_lon": "144.969860118554", "arrival_lat": "-37.6830492642064", "id": "6155.T0.1-V40-D-mjp-1.5.R", "departure_time": "2017-01-25 06:00:00"}, {"departure_lat": "-38.1652241762333", "name": "Warragul Railway Station (Warragul)", "arrival_lon": "145.85594693234", "arrival_time": "2017-01-25 06:06:00", "departure_lon": "145.933085250289", "arrival_lat": "-38.1364519002868", "id": "5952.T0.1-V48-D-mjp-1.7.R", "departure_time": "2017-01-25 06:00:00"}, {"departure_lat": "-38.3850139575809", "name": "Warrnambool Railway Station (Warrnambool)", "arrival_lon": "142.540564516567", "arrival_time": "2017-01-25 06:05:00", "departure_lon": "142.475545037262", "arrival_lat": "-38.3863937596111", "id": "5412.T0.1-V51-D-mjp-1.3.R", "departure_time": "2017-01-25 06:00:00"}, {"departure_lat": "-37.7032933463858", "name": "Melton Railway Station (Melton South)", "arrival_lon": "144.832878204953", "arrival_time": "2017-01-25 06:16:00", "departure_lon": "144.572524145218", "arrival_lat": "-37.7885363319246", "id": "6185.T0.1-V05-D-mjp-1.14.R", "departure_time": "2017-01-25 06:01:00"}, {"departure_lat": "-38.1442421089254", "name": "Geelong Railway Station (Geelong)", "arrival_lon": "144.358987047614", "arrival_time": "2017-01-25 06:04:00", "departure_lon": "144.35498911182", "arrival_lat": "-38.1586586335856", "id": "6073.T0.1-V23-D-mjp-1.1.H", "departure_time": "2017-01-25 06:01:00"}, {"departure_lat": "-37.8321681307146", "name": "Tarneit Railway Station (Tarneit)", "arrival_lon": "144.832878204953", "arrival_time": "2017-01-25 06:19:00", "departure_lon": "144.694714384216", "arrival_lat": "-37.7885363319246", "id": "5831.T0.1-V23-D-mjp-1.23.R", "departure_time": "2017-01-25 06:01:00"}, {"departure_lat": "-37.4235733109544", "name": "Macedon Railway Station (Macedon)", "arrival_lon": "144.598721566871", "arrival_time": "2017-01-25 06:06:00", "departure_lon": "144.561396853042", "arrival_lat": "-37.4588254969165", "id": "5984.T0.1-V12-D-mjp-1.13.R", "departure_time": "2017-01-25 06:02:00"}, {"departure_lat": "-37.0628374463184", "name": "Castlemaine Railway Station (Castlemaine)", "arrival_lon": "144.598721566871", "arrival_time": "2017-01-25 06:29:00", "departure_lon": "144.213799025491", "arrival_lat": "-37.4588254969165", "id": "5985.T0.1-V12-D-mjp-1.14.R", "departure_time": "2017-01-25 06:02:00"}, {"departure_lat": "-38.1442421089254", "name": "Geelong Railway Station (Geelong)", "arrival_lon": "144.352271898836", "arrival_time": "2017-01-25 06:05:00", "departure_lon": "144.35498911182", "arrival_lat": "-38.1228352344324", "id": "5833.T0.1-V23-D-mjp-1.25.R", "departure_time": "2017-01-25 06:02:00"}, {"departure_lat": "-37.9629290891698", "name": "Little River Railway Station (Little River)", "arrival_lon": "144.60847208057", "arrival_time": "2017-01-25 06:12:00", "departure_lon": "144.498484867674", "arrival_lat": "-37.8717818287661", "id": "5832.T0.1-V23-D-mjp-1.24.R", "departure_time": "2017-01-25 06:03:00"}, {"departure_lat": "-38.1586586335856", "name": "South Geelong Railway Station (South Geelong)", "arrival_lon": "144.35505671194", "arrival_time": "2017-01-25 06:09:00", "departure_lon": "144.358987047614", "arrival_lat": "-38.1985490047076", "id": "6073.T0.1-V23-D-mjp-1.1.H", "departure_time": "2017-01-25 06:04:00"}, {"departure_lat": "-38.1228352344324", "name": "North Geelong Railway Station (North Geelong)", "arrival_lon": "144.414404294664", "arrival_time": "2017-01-25 06:14:00", "departure_lon": "144.352271898836", "arrival_lat": "-38.0224276368235", "id": "5833.T0.1-V23-D-mjp-1.25.R", "departure_time": "2017-01-25 06:05:00"}, {"departure_lat": "-38.3863937596111", "name": "Sherwood Park Railway Station (Warrnambool)", "arrival_lon": "142.911472210234", "arrival_time": "2017-01-25 06:33:00", "departure_lon": "142.540564516567", "arrival_lat": "-38.2362119865015", "id": "5412.T0.1-V51-D-mjp-1.3.R", "departure_time": "2017-01-25 06:05:00"}, {"departure_lat": "-37.4588254969165", "name": "Gisborne Railway Station (New Gisborne)", "arrival_lon": "144.679830706708", "arrival_time": "2017-01-25 06:11:00", "departure_lon": "144.598721566871", "arrival_lat": "-37.4651237881784", "id": "5984.T0.1-V12-D-mjp-1.13.R", "departure_time": "2017-01-25 06:06:00"}, {"departure_lat": "-37.2072004909244", "name": "Broadford Railway Station (Broadford)", "arrival_lon": "144.983565994661", "arrival_time": "2017-01-25 06:13:00", "departure_lon": "145.043007902139", "arrival_lat": "-37.2932102740322", "id": "6156.T0.1-V40-D-mjp-1.5.R", "departure_time": "2017-01-25 06:06:00"}, {"departure_lat": "-37.9899679153812", "name": "Dandenong Railway Station (Dandenong)", "arrival_lon": "145.120534360257", "arrival_time": "2017-01-25 06:19:00", "departure_lon": "145.209725368166", "arrival_lat": "-37.9246825520153", "id": "5951.T0.1-V48-D-mjp-1.6.R", "departure_time": "2017-01-25 06:06:00"}, {"departure_lat": "-38.2367187615524", "name": "Morwell Railway Station (Morwell)", "arrival_lon": "146.262697151591", "arrival_time": "2017-01-25 06:16:00", "departure_lon": "146.396753046002", "arrival_lat": "-38.1767146401405", "id": "5953.T0.1-V48-D-mjp-1.6.R", "departure_time": "2017-01-25 06:06:00"}, {"departure_lat": "-38.1364519002868", "name": "Drouin Railway Station (Drouin)", "arrival_lon": "145.674224718789", "arrival_time": "2017-01-25 06:16:00", "departure_lon": "145.85594693234", "arrival_lat": "-38.0910306197666", "id": "5952.T0.1-V48-D-mjp-1.7.R", "departure_time": "2017-01-25 06:06:00"}, {"departure_lat": "-37.8014134330439", "name": "Footscray Railway Station (Footscray)", "arrival_lon": "144.832878204953", "arrival_time": "2017-01-25 06:13:00", "departure_lon": "144.902020057667", "arrival_lat": "-37.7885363319246", "id": "6074.T0.1-V23-D-mjp-1.2.H", "departure_time": "2017-01-25 06:07:00"}, {"departure_lat": "-37.6875782110303", "name": "Bacchus Marsh Railway Station (Maddingley)", "arrival_lon": "144.572524145218", "arrival_time": "2017-01-25 06:19:00", "departure_lon": "144.436785160486", "arrival_lat": "-37.7032933463858", "id": "6186.T0.1-V05-D-mjp-1.13.R", "departure_time": "2017-01-25 06:08:00"}, {"departure_lat": "-36.7656697308233", "name": "Bendigo Railway Station (Bendigo)", "arrival_lon": "144.248990162653", "arrival_time": "2017-01-25 06:12:00", "departure_lon": "144.283008928886", "arrival_lat": "-36.7948336350696", "id": "5986.T0.1-V12-D-mjp-1.15.R", "departure_time": "2017-01-25 06:08:00"}, {"departure_lat": "-38.1985490047076", "name": "Marshall Railway Station (Marshall)", "arrival_lon": "144.30681939977", "arrival_time": "2017-01-25 06:17:00", "departure_lon": "144.35505671194", "arrival_lat": "-38.2158144726992", "id": "6073.T0.1-V23-D-mjp-1.1.H", "departure_time": "2017-01-25 06:09:00"}, {"departure_lat": "-38.1586586335856", "name": "South Geelong Railway Station (South Geelong)", "arrival_lon": "144.35498911182", "arrival_time": "2017-01-25 06:14:00", "departure_lon": "144.358987047614", "arrival_lat": "-38.1442421089254", "id": "5834.T0.1-V23-D-mjp-1.26.R", "departure_time": "2017-01-25 06:09:00"}, {"departure_lat": "-37.8287204273518", "name": "Bairnsdale Railway Station (Bairnsdale)", "arrival_lon": "147.08146944896", "arrival_time": "2017-01-25 06:44:00", "departure_lon": "147.62761375413", "arrival_lat": "-37.967047393693", "id": "5318.T0.1-V08-D-mjp-1.1.H", "departure_time": "2017-01-25 06:10:00"}, {"departure_lat": "-37.8183342913422", "name": "Southern Cross Railway Station (Melbourne City)", "arrival_lon": "144.919613216031", "arrival_time": "2017-01-25 06:32:00", "departure_lon": "144.952524867532", "arrival_lat": "-37.6830492642064", "id": "5332.T0.1-V40-D-mjp-1.1.H", "departure_time": "2017-01-25 06:10:00"}, {"departure_lat": "-37.4651237881784", "name": "Riddells Creek Railway Station (Riddells Creek)", "arrival_lon": "144.745372643394", "arrival_time": "2017-01-25 06:16:00", "departure_lon": "144.679830706708", "arrival_lat": "-37.4834976919689", "id": "5984.T0.1-V12-D-mjp-1.13.R", "departure_time": "2017-01-25 06:11:00"}, {"departure_lat": "-36.7948336350696", "name": "Kangaroo Flat Railway Station (Kangaroo Flat)", "arrival_lon": "144.213799025491", "arrival_time": "2017-01-25 06:29:00", "departure_lon": "144.248990162653", "arrival_lat": "-37.0628374463184", "id": "5986.T0.1-V12-D-mjp-1.15.R", "departure_time": "2017-01-25 06:12:00"}, {"departure_lat": "-37.8717818287661", "name": "Wyndham Vale Railway Station (Wyndham Vale)", "arrival_lon": "144.694714384216", "arrival_time": "2017-01-25 06:19:00", "departure_lon": "144.60847208057", "arrival_lat": "-37.8321681307146", "id": "5832.T0.1-V23-D-mjp-1.24.R", "departure_time": "2017-01-25 06:12:00"}, {"departure_lat": "-37.8183342913422", "name": "Southern Cross Railway Station (Melbourne City)", "arrival_lon": "144.902020057667", "arrival_time": "2017-01-25 06:20:00", "departure_lon": "144.952524867532", "arrival_lat": "-37.8014134330439", "id": "6019.T0.1-V05-D-mjp-1.2.H", "departure_time": "2017-01-25 06:13:00"}, {"departure_lat": "-37.5400850057193", "name": "Wendouree Railway Station (Wendouree)", "arrival_lon": "143.859457427766", "arrival_time": "2017-01-25 06:20:00", "departure_lon": "143.822054600905", "arrival_lat": "-37.5587914823897", "id": "6189.T0.1-V05-D-mjp-1.15.R", "departure_time": "2017-01-25 06:13:00"}, {"departure_lat": "-37.7885363319246", "name": "Sunshine Railway Station (Sunshine)", "arrival_lon": "144.772303608804", "arrival_time": "2017-01-25 06:17:00", "departure_lon": "144.832878204953", "arrival_lat": "-37.7777637471456", "id": "6074.T0.1-V23-D-mjp-1.2.H", "departure_time": "2017-01-25 06:13:00"}, {"departure_lat": "-37.6830492642064", "name": "Broadmeadows Railway Station (Broadmeadows)", "arrival_lon": "144.916197501013", "arrival_time": "2017-01-25 06:28:00", "departure_lon": "144.919613216031", "arrival_lat": "-37.7560116950847", "id": "6155.T0.1-V40-D-mjp-1.5.R", "departure_time": "2017-01-25 06:13:00"}, {"departure_lat": "-37.2932102740322", "name": "Kilmore East Railway Station (Kilmore East)", "arrival_lon": "145.026415443751", "arrival_time": "2017-01-25 06:20:00", "departure_lon": "144.983565994661", "arrival_lat": "-37.3546770982659", "id": "6156.T0.1-V40-D-mjp-1.5.R", "departure_time": "2017-01-25 06:13:00"}, {"departure_lat": "-38.0224276368235", "name": "Lara Railway Station (Lara)", "arrival_lon": "144.60847208057", "arrival_time": "2017-01-25 06:29:00", "departure_lon": "144.414404294664", "arrival_lat": "-37.8717818287661", "id": "5833.T0.1-V23-D-mjp-1.25.R", "departure_time": "2017-01-25 06:14:00"}, {"departure_lat": "-38.1442421089254", "name": "Geelong Railway Station (Geelong)", "arrival_lon": "144.352271898836", "arrival_time": "2017-01-25 06:17:00", "departure_lon": "144.35498911182", "arrival_lat": "-38.1228352344324", "id": "5834.T0.1-V23-D-mjp-1.26.R", "departure_time": "2017-01-25 06:14:00"}, {"departure_lat": "-37.8183342913422", "name": "Southern Cross Railway Station (Melbourne City)", "arrival_lon": "144.966964346166", "arrival_time": "2017-01-25 06:20:00", "departure_lon": "144.952524867532", "arrival_lat": "-37.8183051340585", "id": "5796.T0.1-V48-D-mjp-1.1.H", "departure_time": "2017-01-25 06:14:00"}, {"departure_lat": "-37.7885363319246", "name": "Sunshine Railway Station (Sunshine)", "arrival_lon": "144.902020057667", "arrival_time": "2017-01-25 06:22:00", "departure_lon": "144.832878204953", "arrival_lat": "-37.8014134330439", "id": "6185.T0.1-V05-D-mjp-1.14.R", "departure_time": "2017-01-25 06:16:00"}, {"departure_lat": "-37.4834976919689", "name": "Clarkefield Railway Station (Clarkefield)", "arrival_lon": "144.72816450831", "arrival_time": "2017-01-25 06:28:00", "departure_lon": "144.745372643394", "arrival_lat": "-37.5792063872414", "id": "5984.T0.1-V12-D-mjp-1.13.R", "departure_time": "2017-01-25 06:16:00"}, {"departure_lat": "-38.1767146401405", "name": "Moe Railway Station (Moe)", "arrival_lon": "146.154772842954", "arrival_time": "2017-01-25 06:22:00", "departure_lon": "146.262697151591", "arrival_lat": "-38.207242297018", "id": "5953.T0.1-V48-D-mjp-1.6.R", "departure_time": "2017-01-25 06:16:00"}, {"departure_lat": "-38.0910306197666", "name": "Garfield Railway Station (Garfield)", "arrival_lon": "145.209725368166", "arrival_time": "2017-01-25 06:48:00", "departure_lon": "145.674224718789", "arrival_lat": "-37.9899679153812", "id": "5952.T0.1-V48-D-mjp-1.7.R", "departure_time": "2017-01-25 06:16:00"}, {"departure_lat": "-37.9899679153812", "name": "Dandenong Railway Station (Dandenong)", "arrival_lon": null, "arrival_time": null, "departure_lon": "145.209725368166", "arrival_lat": null, "id": "5629.T0.1-vPK-D-mjp-1.3.R", "departure_time": "2017-01-25 06:16:00"}, {"departure_lat": "-37.6042995115262", "name": "Ballan Railway Station (Ballan)", "arrival_lon": "143.859457427766", "arrival_time": "2017-01-25 06:56:00", "departure_lon": "144.225448027583", "arrival_lat": "-37.5587914823897", "id": "6018.T0.1-V05-D-mjp-1.1.H", "departure_time": "2017-01-25 06:17:00"}, {"departure_lat": "-37.8183342913422", "name": "Southern Cross Railway Station (Melbourne City)", "arrival_lon": "144.902020057667", "arrival_time": "2017-01-25 06:24:00", "departure_lon": "144.952524867532", "arrival_lat": "-37.8014134330439", "id": "5912.T0.1-V12-D-mjp-1.1.H", "departure_time": "2017-01-25 06:17:00"}, {"departure_lat": "-38.2158144726992", "name": "Waurn Ponds Railway Station (Waurn Ponds)", "arrival_lon": null, "arrival_time": null, "departure_lon": "144.30681939977", "arrival_lat": null, "id": "6073.T0.1-V23-D-mjp-1.1.H", "departure_time": "2017-01-25 06:17:00"}, {"departure_lat": "-37.7777637471456", "name": "Deer Park Railway Station (Deer Park)", "arrival_lon": "144.694714384216", "arrival_time": "2017-01-25 06:25:00", "departure_lon": "144.772303608804", "arrival_lat": "-37.8321681307146", "id": "6074.T0.1-V23-D-mjp-1.2.H", "departure_time": "2017-01-25 06:17:00"}, {"departure_lat": "-38.1228352344324", "name": "North Geelong Railway Station (North Geelong)", "arrival_lon": "144.365321419105", "arrival_time": "2017-01-25 06:21:00", "departure_lon": "144.352271898836", "arrival_lat": "-38.0983771352818", "id": "5834.T0.1-V23-D-mjp-1.26.R", "departure_time": "2017-01-25 06:17:00"}, {"departure_lat": "-37.7032933463858", "name": "Melton Railway Station (Melton South)", "arrival_lon": "144.650631483984", "arrival_time": "2017-01-25 06:25:00", "departure_lon": "144.572524145218", "arrival_lat": "-37.7292612709136", "id": "6186.T0.1-V05-D-mjp-1.13.R", "departure_time": "2017-01-25 06:19:00"}, {"departure_lat": "-37.7885363319246", "name": "Sunshine Railway Station (Sunshine)", "arrival_lon": "144.902020057667", "arrival_time": "2017-01-25 06:26:00", "departure_lon": "144.832878204953", "arrival_lat": "-37.8014134330439", "id": "5831.T0.1-V23-D-mjp-1.23.R", "departure_time": "2017-01-25 06:19:00"}, {"departure_lat": "-37.8321681307146", "name": "Tarneit Railway Station (Tarneit)", "arrival_lon": "144.832878204953", "arrival_time": "2017-01-25 06:36:00", "departure_lon": "144.694714384216", "arrival_lat": "-37.7885363319246", "id": "5832.T0.1-V23-D-mjp-1.24.R", "departure_time": "2017-01-25 06:19:00"}, {"departure_lat": "-37.9246825520153", "name": "Clayton Railway Station (Clayton)", "arrival_lon": "145.042524781036", "arrival_time": "2017-01-25 06:31:00", "departure_lon": "145.120534360257", "arrival_lat": "-37.8774594614914", "id": "5951.T0.1-V48-D-mjp-1.6.R", "departure_time": "2017-01-25 06:19:00"}, {"departure_lat": "-37.0247287252427", "name": "Seymour Railway Station (Seymour)", "arrival_lon": "145.102997284521", "arrival_time": "2017-01-25 06:27:00", "departure_lon": "145.137728616954", "arrival_lat": "-37.0923345407483", "id": "5324.T0.1-Sht-D-mjp-1.1.H", "departure_time": "2017-01-25 06:20:00"}, {"departure_lat": "-37.8014134330439", "name": "Footscray Railway Station (Footscray)", "arrival_lon": "144.832878204953", "arrival_time": "2017-01-25 06:26:00", "departure_lon": "144.902020057667", "arrival_lat": "-37.7885363319246", "id": "6019.T0.1-V05-D-mjp-1.2.H", "departure_time": "2017-01-25 06:20:00"}, {"departure_lat": "-37.5587914823897", "name": "Ballarat Railway Station (Ballarat Central)", "arrival_lon": "144.225448027583", "arrival_time": "2017-01-25 06:37:00", "departure_lon": "143.859457427766", "arrival_lat": "-37.6042995115262", "id": "6189.T0.1-V05-D-mjp-1.15.R", "departure_time": "2017-01-25 06:20:00"}, {"departure_lat": "-37.8014134330439", "name": "Footscray Railway Station (Footscray)", "arrival_lon": "144.952524867532", "arrival_time": "2017-01-25 06:29:00", "departure_lon": "144.902020057667", "arrival_lat": "-37.8183342913422", "id": "5983.T0.1-V12-D-mjp-1.12.R", "departure_time": "2017-01-25 06:20:00"}, {"departure_lat": "-37.3546770982659", "name": "Wandong Railway Station (Wandong)", "arrival_lon": "145.026310472064", "arrival_time": "2017-01-25 06:22:00", "departure_lon": "145.026415443751", "arrival_lat": "-37.3677343958931", "id": "6156.T0.1-V40-D-mjp-1.5.R", "departure_time": "2017-01-25 06:20:00"}, {"departure_lat": "-37.8183051340585", "name": "Flinders Street Railway Station (Melbourne City)", "arrival_lon": "145.042524781036", "arrival_time": "2017-01-25 06:32:00", "departure_lon": "144.966964346166", "arrival_lat": "-37.8774594614914", "id": "5796.T0.1-V48-D-mjp-1.1.H", "departure_time": "2017-01-25 06:20:00"}, {"departure_lat": "-38.0983771352818", "name": "North Shore Railway Station (North Shore)", "arrival_lon": "144.37976841879", "arrival_time": "2017-01-25 06:24:00", "departure_lon": "144.365321419105", "arrival_lat": "-38.0728312611647", "id": "5834.T0.1-V23-D-mjp-1.26.R", "departure_time": "2017-01-25 06:21:00"}, {"departure_lat": "-37.8014134330439", "name": "Footscray Railway Station (Footscray)", "arrival_lon": "144.952524867532", "arrival_time": "2017-01-25 06:31:00", "departure_lon": "144.902020057667", "arrival_lat": "-37.8183342913422", "id": "6185.T0.1-V05-D-mjp-1.14.R", "departure_time": "2017-01-25 06:22:00"}, {"departure_lat": "-36.7185253927456", "name": "Eaglehawk Railway Station (Eaglehawk)", "arrival_lon": "144.283008928886", "arrival_time": "2017-01-25 06:32:00", "departure_lon": "144.248379897507", "arrival_lat": "-36.7656697308233", "id": "5997.T0.1-V12-D-mjp-1.16.R", "departure_time": "2017-01-25 06:22:00"}, {"departure_lat": "-37.3677343958931", "name": "Heathcote Junction Railway Station (Heathcote Junction)", "arrival_lon": "145.005372256037", "arrival_time": "2017-01-25 06:27:00", "departure_lon": "145.026310472064", "arrival_lat": "-37.4168610028693", "id": "6156.T0.1-V40-D-mjp-1.5.R", "departure_time": "2017-01-25 06:22:00"}, {"departure_lat": "-38.207242297018", "name": "Trafalgar Railway Station (Trafalgar)", "arrival_lon": "146.063062795324", "arrival_time": "2017-01-25 06:27:00", "departure_lon": "146.154772842954", "arrival_lat": "-38.2031575351164", "id": "5953.T0.1-V48-D-mjp-1.6.R", "departure_time": "2017-01-25 06:22:00"}, {"departure_lat": "-37.6875782110303", "name": "Bacchus Marsh Railway Station (Maddingley)", "arrival_lon": "144.572524145218", "arrival_time": "2017-01-25 06:34:00", "departure_lon": "144.436785160486", "arrival_lat": "-37.7032933463858", "id": "6187.T0.1-V05-D-mjp-1.13.R", "departure_time": "2017-01-25 06:23:00"}, {"departure_lat": "-37.8014134330439", "name": "Footscray Railway Station (Footscray)", "arrival_lon": "144.72816450831", "arrival_time": "2017-01-25 06:52:00", "departure_lon": "144.902020057667", "arrival_lat": "-37.5792063872414", "id": "5912.T0.1-V12-D-mjp-1.1.H", "departure_time": "2017-01-25 06:24:00"}, {"departure_lat": "-38.0728312611647", "name": "Corio Railway Station (Corio)", "arrival_lon": "144.414404294664", "arrival_time": "2017-01-25 06:30:00", "departure_lon": "144.37976841879", "arrival_lat": "-38.0224276368235", "id": "5834.T0.1-V23-D-mjp-1.26.R", "departure_time": "2017-01-25 06:24:00"}, {"departure_lat": "-37.7292612709136", "name": "Rockbank Railway Station (Rockbank)", "arrival_lon": "144.772303608804", "arrival_time": "2017-01-25 06:34:00", "departure_lon": "144.650631483984", "arrival_lat": "-37.7777637471456", "id": "6186.T0.1-V05-D-mjp-1.13.R", "departure_time": "2017-01-25 06:25:00"}, {"departure_lat": "-37.8321681307146", "name": "Tarneit Railway Station (Tarneit)", "arrival_lon": "144.60847208057", "arrival_time": "2017-01-25 06:31:00", "departure_lon": "144.694714384216", "arrival_lat": "-37.8717818287661", "id": "6074.T0.1-V23-D-mjp-1.2.H", "departure_time": "2017-01-25 06:25:00"}, {"departure_lat": "-37.8183342913422", "name": "Southern Cross Railway Station (Melbourne City)", "arrival_lon": "144.902020057667", "arrival_time": "2017-01-25 06:32:00", "departure_lon": "144.952524867532", "arrival_lat": "-37.8014134330439", "id": "6075.T0.1-V23-D-mjp-1.3.H", "departure_time": "2017-01-25 06:25:00"}, {"departure_lat": "-37.7885363319246", "name": "Sunshine Railway Station (Sunshine)", "arrival_lon": "144.802188066669", "arrival_time": "2017-01-25 06:29:00", "departure_lon": "144.832878204953", "arrival_lat": "-37.7830652929363", "id": "6019.T0.1-V05-D-mjp-1.2.H", "departure_time": "2017-01-25 06:26:00"}, {"departure_lat": "-37.8014134330439", "name": "Footscray Railway Station (Footscray)", "arrival_lon": "144.952524867532", "arrival_time": "2017-01-25 06:35:00", "departure_lon": "144.902020057667", "arrival_lat": "-37.8183342913422", "id": "5831.T0.1-V23-D-mjp-1.23.R", "departure_time": "2017-01-25 06:26:00"}, {"departure_lat": "-37.0923345407483", "name": "Tallarook Railway Station (Tallarook)", "arrival_lon": "145.043007902139", "arrival_time": "2017-01-25 06:38:00", "departure_lon": "145.102997284521", "arrival_lat": "-37.2072004909244", "id": "5324.T0.1-Sht-D-mjp-1.1.H", "departure_time": "2017-01-25 06:27:00"}, {"departure_lat": "-37.4168610028693", "name": "Wallan Railway Station (Wallan)", "arrival_lon": "144.969860118554", "arrival_time": "2017-01-25 06:35:00", "departure_lon": "145.005372256037", "arrival_lat": "-37.5425895208628", "id": "6156.T0.1-V40-D-mjp-1.5.R", "departure_time": "2017-01-25 06:27:00"}, {"departure_lat": "-38.2031575351164", "name": "Yarragon Railway Station (Yarragon)", "arrival_lon": "145.933085250289", "arrival_time": "2017-01-25 06:35:00", "departure_lon": "146.063062795324", "arrival_lat": "-38.1652241762333", "id": "5953.T0.1-V48-D-mjp-1.6.R", "departure_time": "2017-01-25 06:27:00"}, {"departure_lat": "-37.5792063872414", "name": "Sunbury Railway Station (Sunbury)", "arrival_lon": "144.902020057667", "arrival_time": "2017-01-25 06:50:00", "departure_lon": "144.72816450831", "arrival_lat": "-37.8014134330439", "id": "5984.T0.1-V12-D-mjp-1.13.R", "departure_time": "2017-01-25 06:28:00"}, {"departure_lat": "-37.7560116950847", "name": "Essendon Railway Station (Essendon)", "arrival_lon": "144.94151017321", "arrival_time": "2017-01-25 06:38:00", "departure_lon": "144.916197501013", "arrival_lat": "-37.8063098353473", "id": "6155.T0.1-V40-D-mjp-1.5.R", "departure_time": "2017-01-25 06:28:00"}, {"departure_lat": "-37.7830652929363", "name": "Ardeer Railway Station (Ardeer)", "arrival_lon": "144.772303608804", "arrival_time": "2017-01-25 06:32:00", "departure_lon": "144.802188066669", "arrival_lat": "-37.7777637471456", "id": "6019.T0.1-V05-D-mjp-1.2.H", "departure_time": "2017-01-25 06:29:00"}, {"departure_lat": "-37.8183342913422", "name": "Southern Cross Railway Station (Melbourne City)", "arrival_lon": null, "arrival_time": null, "departure_lon": "144.952524867532", "arrival_lat": null, "id": "5983.T0.1-V12-D-mjp-1.12.R", "departure_time": "2017-01-25 06:29:00"}, {"departure_lat": "-37.4588254969165", "name": "Gisborne Railway Station (New Gisborne)", "arrival_lon": "144.902020057667", "arrival_time": "2017-01-25 07:09:00", "departure_lon": "144.598721566871", "arrival_lat": "-37.8014134330439", "id": "5985.T0.1-V12-D-mjp-1.14.R", "departure_time": "2017-01-25 06:29:00"}, {"departure_lat": "-37.0628374463184", "name": "Castlemaine Railway Station (Castlemaine)", "arrival_lon": "144.375323170241", "arrival_time": "2017-01-25 06:41:00", "departure_lon": "144.213799025491", "arrival_lat": "-37.1897403219827", "id": "5986.T0.1-V12-D-mjp-1.15.R", "departure_time": "2017-01-25 06:29:00"}, {"departure_lat": "-37.8717818287661", "name": "Wyndham Vale Railway Station (Wyndham Vale)", "arrival_lon": "144.694714384216", "arrival_time": "2017-01-25 06:38:00", "departure_lon": "144.60847208057", "arrival_lat": "-37.8321681307146", "id": "5833.T0.1-V23-D-mjp-1.25.R", "departure_time": "2017-01-25 06:29:00"}, {"departure_lat": "-38.2158144726992", "name": "Waurn Ponds Railway Station (Waurn Ponds)", "arrival_lon": "144.35505671194", "arrival_time": "2017-01-25 06:34:00", "departure_lon": "144.30681939977", "arrival_lat": "-38.1985490047076", "id": "5879.T0.1-V23-D-mjp-1.28.R", "departure_time": "2017-01-25 06:29:00"}, {"departure_lat": "-38.0224276368235", "name": "Lara Railway Station (Lara)", "arrival_lon": "144.60847208057", "arrival_time": "2017-01-25 06:45:00", "departure_lon": "144.414404294664", "arrival_lat": "-37.8717818287661", "id": "5834.T0.1-V23-D-mjp-1.26.R", "departure_time": "2017-01-25 06:30:00"}, {"departure_lat": "-36.3837910130908", "name": "Shepparton Railway Station (Shepparton)", "arrival_lon": "145.358214835679", "arrival_time": "2017-01-25 06:38:00", "departure_lon": "145.40649748504", "arrival_lat": "-36.3991282818457", "id": "5325.T0.1-Sht-D-mjp-1.2.H", "departure_time": "2017-01-25 06:31:00"}, {"departure_lat": "-37.8183342913422", "name": "Southern Cross Railway Station (Melbourne City)", "arrival_lon": null, "arrival_time": null, "departure_lon": "144.952524867532", "arrival_lat": null, "id": "6185.T0.1-V05-D-mjp-1.14.R", "departure_time": "2017-01-25 06:31:00"}, {"departure_lat": "-37.8717818287661", "name": "Wyndham Vale Railway Station (Wyndham Vale)", "arrival_lon": "144.498484867674", "arrival_time": "2017-01-25 06:38:00", "departure_lon": "144.60847208057", "arrival_lat": "-37.9629290891698", "id": "6074.T0.1-V23-D-mjp-1.2.H", "departure_time": "2017-01-25 06:31:00"}, {"departure_lat": "-38.1586586335856", "name": "South Geelong Railway Station (South Geelong)", "arrival_lon": "144.35498911182", "arrival_time": "2017-01-25 06:36:00", "departure_lon": "144.358987047614", "arrival_lat": "-38.1442421089254", "id": "5878.T0.1-V23-D-mjp-1.27.R", "departure_time": "2017-01-25 06:31:00"}, {"departure_lat": "-37.8774594614914", "name": "Caulfield Railway Station (Caulfield East)", "arrival_lon": "144.990164256273", "arrival_time": "2017-01-25 06:39:00", "departure_lon": "145.042524781036", "arrival_lat": "-37.8240744554248", "id": "5951.T0.1-V48-D-mjp-1.6.R", "departure_time": "2017-01-25 06:31:00"}, {"departure_lat": "-37.7777637471456", "name": "Deer Park Railway Station (Deer Park)", "arrival_lon": "144.650631483984", "arrival_time": "2017-01-25 06:42:00", "departure_lon": "144.772303608804", "arrival_lat": "-37.7292612709136", "id": "6019.T0.1-V05-D-mjp-1.2.H", "departure_time": "2017-01-25 06:32:00"}, {"departure_lat": "-36.7656697308233", "name": "Bendigo Railway Station (Bendigo)", "arrival_lon": "144.248990162653", "arrival_time": "2017-01-25 06:36:00", "departure_lon": "144.283008928886", "arrival_lat": "-36.7948336350696", "id": "5997.T0.1-V12-D-mjp-1.16.R", "departure_time": "2017-01-25 06:32:00"}, {"departure_lat": "-37.8014134330439", "name": "Footscray Railway Station (Footscray)", "arrival_lon": "144.832878204953", "arrival_time": "2017-01-25 06:38:00", "departure_lon": "144.902020057667", "arrival_lat": "-37.7885363319246", "id": "6075.T0.1-V23-D-mjp-1.3.H", "departure_time": "2017-01-25 06:32:00"}, {"departure_lat": "-37.6830492642064", "name": "Broadmeadows Railway Station (Broadmeadows)", "arrival_lon": "144.943306014347", "arrival_time": "2017-01-25 06:46:00", "departure_lon": "144.919613216031", "arrival_lat": "-37.6019247988331", "id": "5332.T0.1-V40-D-mjp-1.1.H", "departure_time": "2017-01-25 06:32:00"}, {"departure_lat": "-37.8774594614914", "name": "Caulfield Railway Station (Caulfield East)", "arrival_lon": "145.120534360257", "arrival_time": "2017-01-25 06:41:00", "departure_lon": "145.042524781036", "arrival_lat": "-37.9246825520153", "id": "5796.T0.1-V48-D-mjp-1.1.H", "departure_time": "2017-01-25 06:32:00"}, {"departure_lat": "-38.2362119865015", "name": "Terang Railway Station (Terang)", "arrival_lon": "143.150927797287", "arrival_time": "2017-01-25 06:51:00", "departure_lon": "142.911472210234", "arrival_lat": "-38.2289009105233", "id": "5412.T0.1-V51-D-mjp-1.3.R", "departure_time": "2017-01-25 06:33:00"}, {"departure_lat": "-37.7777637471456", "name": "Deer Park Railway Station (Deer Park)", "arrival_lon": "144.802188066669", "arrival_time": "2017-01-25 06:37:00", "departure_lon": "144.772303608804", "arrival_lat": "-37.7830652929363", "id": "6186.T0.1-V05-D-mjp-1.13.R", "departure_time": "2017-01-25 06:34:00"}, {"departure_lat": "-37.7032933463858", "name": "Melton Railway Station (Melton South)", "arrival_lon": "144.650631483984", "arrival_time": "2017-01-25 06:42:00", "departure_lon": "144.572524145218", "arrival_lat": "-37.7292612709136", "id": "6187.T0.1-V05-D-mjp-1.13.R", "departure_time": "2017-01-25 06:34:00"}, {"departure_lat": "-37.6875782110303", "name": "Bacchus Marsh Railway Station (Maddingley)", "arrival_lon": "144.572524145218", "arrival_time": "2017-01-25 06:47:00", "departure_lon": "144.436785160486", "arrival_lat": "-37.7032933463858", "id": "6188.T0.1-V05-D-mjp-1.13.R", "departure_time": "2017-01-25 06:34:00"}, {"departure_lat": "-38.1985490047076", "name": "Marshall Railway Station (Marshall)", "arrival_lon": "144.358987047614", "arrival_time": "2017-01-25 06:39:00", "departure_lon": "144.35505671194", "arrival_lat": "-38.1586586335856", "id": "5879.T0.1-V23-D-mjp-1.28.R", "departure_time": "2017-01-25 06:34:00"}, {"departure_lat": "-36.0842616098673", "name": "Albury Railway Station (Albury (NSW))", "arrival_lon": "146.871265677398", "arrival_time": "2017-01-25 06:45:00", "departure_lon": "146.924515439062", "arrival_lat": "-36.1058270991665", "id": "5302.T0.1-V01-D-mjp-1.1.H", "departure_time": "2017-01-25 06:35:00"}, {"departure_lat": "-37.8183342913422", "name": "Southern Cross Railway Station (Melbourne City)", "arrival_lon": null, "arrival_time": null, "departure_lon": "144.952524867532", "arrival_lat": null, "id": "5831.T0.1-V23-D-mjp-1.23.R", "departure_time": "2017-01-25 06:35:00"}, {"departure_lat": "-37.5425895208628", "name": "Donnybrook Railway Station (Donnybrook)", "arrival_lon": "144.919613216031", "arrival_time": "2017-01-25 06:48:00", "departure_lon": "144.969860118554", "arrival_lat": "-37.6830492642064", "id": "6156.T0.1-V40-D-mjp-1.5.R", "departure_time": "2017-01-25 06:35:00"}, {"departure_lat": "-38.1652241762333", "name": "Warragul Railway Station (Warragul)", "arrival_lon": "145.85594693234", "arrival_time": "2017-01-25 06:40:00", "departure_lon": "145.933085250289", "arrival_lat": "-38.1364519002868", "id": "5953.T0.1-V48-D-mjp-1.6.R", "departure_time": "2017-01-25 06:35:00"}, {"departure_lat": "-36.7948336350696", "name": "Kangaroo Flat Railway Station (Kangaroo Flat)", "arrival_lon": "144.213799025491", "arrival_time": "2017-01-25 06:53:00", "departure_lon": "144.248990162653", "arrival_lat": "-37.0628374463184", "id": "5997.T0.1-V12-D-mjp-1.16.R", "departure_time": "2017-01-25 06:36:00"}, {"departure_lat": "-37.7885363319246", "name": "Sunshine Railway Station (Sunshine)", "arrival_lon": "144.902020057667", "arrival_time": "2017-01-25 06:42:00", "departure_lon": "144.832878204953", "arrival_lat": "-37.8014134330439", "id": "5832.T0.1-V23-D-mjp-1.24.R", "departure_time": "2017-01-25 06:36:00"}, {"departure_lat": "-38.1442421089254", "name": "Geelong Railway Station (Geelong)", "arrival_lon": "144.352271898836", "arrival_time": "2017-01-25 06:39:00", "departure_lon": "144.35498911182", "arrival_lat": "-38.1228352344324", "id": "5878.T0.1-V23-D-mjp-1.27.R", "departure_time": "2017-01-25 06:36:00"}, {"departure_lat": "-37.7830652929363", "name": "Ardeer Railway Station (Ardeer)", "arrival_lon": "144.832878204953", "arrival_time": "2017-01-25 06:42:00", "departure_lon": "144.802188066669", "arrival_lat": "-37.7885363319246", "id": "6186.T0.1-V05-D-mjp-1.13.R", "departure_time": "2017-01-25 06:37:00"}, {"departure_lat": "-37.6042995115262", "name": "Ballan Railway Station (Ballan)", "arrival_lon": "144.436785160486", "arrival_time": "2017-01-25 06:54:00", "departure_lon": "144.225448027583", "arrival_lat": "-37.6875782110303", "id": "6189.T0.1-V05-D-mjp-1.15.R", "departure_time": "2017-01-25 06:37:00"}, {"departure_lat": "-38.1988849376845", "name": "Traralgon Railway Station (Traralgon)", "arrival_lon": "146.396753046002", "arrival_time": "2017-01-25 06:46:00", "departure_lon": "146.537882118369", "arrival_lat": "-38.2367187615524", "id": "5954.T0.1-V48-D-mjp-1.8.R", "departure_time": "2017-01-25 06:37:00"}, {"departure_lat": "-37.2072004909244", "name": "Broadford Railway Station (Broadford)", "arrival_lon": "144.983565994661", "arrival_time": "2017-01-25 06:46:00", "departure_lon": "145.043007902139", "arrival_lat": "-37.2932102740322", "id": "5324.T0.1-Sht-D-mjp-1.1.H", "departure_time": "2017-01-25 06:38:00"}, {"departure_lat": "-36.3991282818457", "name": "Mooroopna Railway Station (Mooroopna)", "arrival_lon": "145.240635561978", "arrival_time": "2017-01-25 06:59:00", "departure_lon": "145.358214835679", "arrival_lat": "-36.6131479408411", "id": "5325.T0.1-Sht-D-mjp-1.2.H", "departure_time": "2017-01-25 06:38:00"}, {"departure_lat": "-37.5400850057193", "name": "Wendouree Railway Station (Wendouree)", "arrival_lon": "143.859457427766", "arrival_time": "2017-01-25 06:45:00", "departure_lon": "143.822054600905", "arrival_lat": "-37.5587914823897", "id": "6214.T0.1-V05-D-mjp-1.17.R", "departure_time": "2017-01-25 06:38:00"}, {"departure_lat": "-37.9629290891698", "name": "Little River Railway Station (Little River)", "arrival_lon": "144.414404294664", "arrival_time": "2017-01-25 06:44:00", "departure_lon": "144.498484867674", "arrival_lat": "-38.0224276368235", "id": "6074.T0.1-V23-D-mjp-1.2.H", "departure_time": "2017-01-25 06:38:00"}, {"departure_lat": "-37.7885363319246", "name": "Sunshine Railway Station (Sunshine)", "arrival_lon": "144.802188066669", "arrival_time": "2017-01-25 06:41:00", "departure_lon": "144.832878204953", "arrival_lat": "-37.7830652929363", "id": "6075.T0.1-V23-D-mjp-1.3.H", "departure_time": "2017-01-25 06:38:00"}, {"departure_lat": "-37.8321681307146", "name": "Tarneit Railway Station (Tarneit)", "arrival_lon": "144.832878204953", "arrival_time": "2017-01-25 06:57:00", "departure_lon": "144.694714384216", "arrival_lat": "-37.7885363319246", "id": "5833.T0.1-V23-D-mjp-1.25.R", "departure_time": "2017-01-25 06:38:00"}, {"departure_lat": "-37.8063098353473", "name": "North Melbourne Railway Station (West Melbourne)", "arrival_lon": "144.952524867532", "arrival_time": "2017-01-25 06:46:00", "departure_lon": "144.94151017321", "arrival_lat": "-37.8183342913422", "id": "6155.T0.1-V40-D-mjp-1.5.R", "departure_time": "2017-01-25 06:38:00"}, {"departure_lat": "-38.1228352344324", "name": "North Geelong Railway Station (North Geelong)", "arrival_lon": "144.414404294664", "arrival_time": "2017-01-25 06:45:00", "departure_lon": "144.352271898836", "arrival_lat": "-38.0224276368235", "id": "5878.T0.1-V23-D-mjp-1.27.R", "departure_time": "2017-01-25 06:39:00"}, {"departure_lat": "-38.1586586335856", "name": "South Geelong Railway Station (South Geelong)", "arrival_lon": "144.35498911182", "arrival_time": "2017-01-25 06:44:00", "departure_lon": "144.358987047614", "arrival_lat": "-38.1442421089254", "id": "5879.T0.1-V23-D-mjp-1.28.R", "departure_time": "2017-01-25 06:39:00"}, {"departure_lat": "-37.8240744554248", "name": "Richmond Railway Station (Richmond)", "arrival_lon": "144.966964346166", "arrival_time": "2017-01-25 06:45:00", "departure_lon": "144.990164256273", "arrival_lat": "-37.8183051340585", "id": "5951.T0.1-V48-D-mjp-1.6.R", "departure_time": "2017-01-25 06:39:00"}, {"departure_lat": "-38.1364519002868", "name": "Drouin Railway Station (Drouin)", "arrival_lon": "145.766860285292", "arrival_time": "2017-01-25 06:46:00", "departure_lon": "145.85594693234", "arrival_lat": "-38.1109921063784", "id": "5953.T0.1-V48-D-mjp-1.6.R", "departure_time": "2017-01-25 06:40:00"}, {"departure_lat": "-37.1897403219827", "name": "Malmsbury Railway Station (Malmsbury)", "arrival_lon": "144.450601588246", "arrival_time": "2017-01-25 06:49:00", "departure_lon": "144.375323170241", "arrival_lat": "-37.2582788509932", "id": "5986.T0.1-V12-D-mjp-1.15.R", "departure_time": "2017-01-25 06:41:00"}, {"departure_lat": "-37.7830652929363", "name": "Ardeer Railway Station (Ardeer)", "arrival_lon": "144.772303608804", "arrival_time": "2017-01-25 06:44:00", "departure_lon": "144.802188066669", "arrival_lat": "-37.7777637471456", "id": "6075.T0.1-V23-D-mjp-1.3.H", "departure_time": "2017-01-25 06:41:00"}, {"departure_lat": "-37.9246825520153", "name": "Clayton Railway Station (Clayton)", "arrival_lon": "145.209725368166", "arrival_time": "2017-01-25 06:54:00", "departure_lon": "145.120534360257", "arrival_lat": "-37.9899679153812", "id": "5796.T0.1-V48-D-mjp-1.1.H", "departure_time": "2017-01-25 06:41:00"}, {"departure_lat": "-37.7292612709136", "name": "Rockbank Railway Station (Rockbank)", "arrival_lon": "144.572524145218", "arrival_time": "2017-01-25 06:47:00", "departure_lon": "144.650631483984", "arrival_lat": "-37.7032933463858", "id": "6019.T0.1-V05-D-mjp-1.2.H", "departure_time": "2017-01-25 06:42:00"}, {"departure_lat": "-37.7885363319246", "name": "Sunshine Railway Station (Sunshine)", "arrival_lon": "144.902020057667", "arrival_time": "2017-01-25 06:48:00", "departure_lon": "144.832878204953", "arrival_lat": "-37.8014134330439", "id": "6186.T0.1-V05-D-mjp-1.13.R", "departure_time": "2017-01-25 06:42:00"}, {"departure_lat": "-37.7292612709136", "name": "Rockbank Railway Station (Rockbank)", "arrival_lon": "144.772303608804", "arrival_time": "2017-01-25 06:51:00", "departure_lon": "144.650631483984", "arrival_lat": "-37.7777637471456", "id": "6187.T0.1-V05-D-mjp-1.13.R", "departure_time": "2017-01-25 06:42:00"}, {"departure_lat": "-37.8014134330439", "name": "Footscray Railway Station (Footscray)", "arrival_lon": "144.952524867532", "arrival_time": "2017-01-25 06:51:00", "departure_lon": "144.902020057667", "arrival_lat": "-37.8183342913422", "id": "5832.T0.1-V23-D-mjp-1.24.R", "departure_time": "2017-01-25 06:42:00"}, {"departure_lat": "-37.967047393693", "name": "Stratford Railway Station (Stratford)", "arrival_lon": "147.054805133913", "arrival_time": "2017-01-25 06:59:00", "departure_lon": "147.08146944896", "arrival_lat": "-38.1031027232593", "id": "5318.T0.1-V08-D-mjp-1.1.H", "departure_time": "2017-01-25 06:44:00"}, {"departure_lat": "-38.0224276368235", "name": "Lara Railway Station (Lara)", "arrival_lon": "144.37976841879", "arrival_time": "2017-01-25 06:48:00", "departure_lon": "144.414404294664", "arrival_lat": "-38.0728312611647", "id": "6074.T0.1-V23-D-mjp-1.2.H", "departure_time": "2017-01-25 06:44:00"}, {"departure_lat": "-37.7777637471456", "name": "Deer Park Railway Station (Deer Park)", "arrival_lon": "144.694714384216", "arrival_time": "2017-01-25 06:52:00", "departure_lon": "144.772303608804", "arrival_lat": "-37.8321681307146", "id": "6075.T0.1-V23-D-mjp-1.3.H", "departure_time": "2017-01-25 06:44:00"}, {"departure_lat": "-38.1442421089254", "name": "Geelong Railway Station (Geelong)", "arrival_lon": "144.352271898836", "arrival_time": "2017-01-25 06:47:00", "departure_lon": "144.35498911182", "arrival_lat": "-38.1228352344324", "id": "5879.T0.1-V23-D-mjp-1.28.R", "departure_time": "2017-01-25 06:44:00"}, {"departure_lat": "-36.1058270991665", "name": "Wodonga Railway Station (Wodonga)", "arrival_lon": "146.611374754964", "arrival_time": "2017-01-25 07:05:00", "departure_lon": "146.871265677398", "arrival_lat": "-36.1556366325643", "id": "5302.T0.1-V01-D-mjp-1.1.H", "departure_time": "2017-01-25 06:45:00"}, {"departure_lat": "-37.5587914823897", "name": "Ballarat Railway Station (Ballarat Central)", "arrival_lon": "144.225448027583", "arrival_time": "2017-01-25 07:02:00", "departure_lon": "143.859457427766", "arrival_lat": "-37.6042995115262", "id": "6214.T0.1-V05-D-mjp-1.17.R", "departure_time": "2017-01-25 06:45:00"}, {"departure_lat": "-37.8717818287661", "name": "Wyndham Vale Railway Station (Wyndham Vale)", "arrival_lon": "144.902020057667", "arrival_time": "2017-01-25 07:16:00", "departure_lon": "144.60847208057", "arrival_lat": "-37.8014134330439", "id": "5834.T0.1-V23-D-mjp-1.26.R", "departure_time": "2017-01-25 06:45:00"}, {"departure_lat": "-38.0224276368235", "name": "Lara Railway Station (Lara)", "arrival_lon": "144.498484867674", "arrival_time": "2017-01-25 06:50:00", "departure_lon": "144.414404294664", "arrival_lat": "-37.9629290891698", "id": "5878.T0.1-V23-D-mjp-1.27.R", "departure_time": "2017-01-25 06:45:00"}, {"departure_lat": "-37.8183051340585", "name": "Flinders Street Railway Station (Melbourne City)", "arrival_lon": "144.952524867532", "arrival_time": "2017-01-25 06:58:00", "departure_lon": "144.966964346166", "arrival_lat": "-37.8183342913422", "id": "5951.T0.1-V48-D-mjp-1.6.R", "departure_time": "2017-01-25 06:45:00"}, {"departure_lat": "-37.2932102740322", "name": "Kilmore East Railway Station (Kilmore East)", "arrival_lon": "145.026415443751", "arrival_time": "2017-01-25 06:53:00", "departure_lon": "144.983565994661", "arrival_lat": "-37.3546770982659", "id": "5324.T0.1-Sht-D-mjp-1.1.H", "departure_time": "2017-01-25 06:46:00"}, {"departure_lat": "-37.6019247988331", "name": "Craigieburn Railway Station (Craigieburn)", "arrival_lon": "144.969860118554", "arrival_time": "2017-01-25 06:51:00", "departure_lon": "144.943306014347", "arrival_lat": "-37.5425895208628", "id": "5332.T0.1-V40-D-mjp-1.1.H", "departure_time": "2017-01-25 06:46:00"}, {"departure_lat": "-37.8183342913422", "name": "Southern Cross Railway Station (Melbourne City)", "arrival_lon": null, "arrival_time": null, "departure_lon": "144.952524867532", "arrival_lat": null, "id": "6155.T0.1-V40-D-mjp-1.5.R", "departure_time": "2017-01-25 06:46:00"}, {"departure_lat": "-38.1109921063784", "name": "Longwarry Railway Station (Longwarry)", "arrival_lon": "145.7207574905", "arrival_time": "2017-01-25 06:50:00", "departure_lon": "145.766860285292", "arrival_lat": "-38.0991077095814", "id": "5953.T0.1-V48-D-mjp-1.6.R", "departure_time": "2017-01-25 06:46:00"}, {"departure_lat": "-38.2367187615524", "name": "Morwell Railway Station (Morwell)", "arrival_lon": "146.262697151591", "arrival_time": "2017-01-25 06:56:00", "departure_lon": "146.396753046002", "arrival_lat": "-38.1767146401405", "id": "5954.T0.1-V48-D-mjp-1.8.R", "departure_time": "2017-01-25 06:46:00"}, {"departure_lat": "-37.7032933463858", "name": "Melton Railway Station (Melton South)", "arrival_lon": "144.225448027583", "arrival_time": "2017-01-25 07:18:00", "departure_lon": "144.572524145218", "arrival_lat": "-37.6042995115262", "id": "6019.T0.1-V05-D-mjp-1.2.H", "departure_time": "2017-01-25 06:47:00"}, {"departure_lat": "-37.7032933463858", "name": "Melton Railway Station (Melton South)", "arrival_lon": "144.650631483984", "arrival_time": "2017-01-25 06:53:00", "departure_lon": "144.572524145218", "arrival_lat": "-37.7292612709136", "id": "6188.T0.1-V05-D-mjp-1.13.R", "departure_time": "2017-01-25 06:47:00"}, {"departure_lat": "-38.1228352344324", "name": "North Geelong Railway Station (North Geelong)", "arrival_lon": "144.365321419105", "arrival_time": "2017-01-25 06:50:00", "departure_lon": "144.352271898836", "arrival_lat": "-38.0983771352818", "id": "5879.T0.1-V23-D-mjp-1.28.R", "departure_time": "2017-01-25 06:47:00"}, {"departure_lat": "-37.8014134330439", "name": "Footscray Railway Station (Footscray)", "arrival_lon": "144.952524867532", "arrival_time": "2017-01-25 06:57:00", "departure_lon": "144.902020057667", "arrival_lat": "-37.8183342913422", "id": "6186.T0.1-V05-D-mjp-1.13.R", "departure_time": "2017-01-25 06:48:00"}, {"departure_lat": "-38.0728312611647", "name": "Corio Railway Station (Corio)", "arrival_lon": "144.365321419105", "arrival_time": "2017-01-25 06:51:00", "departure_lon": "144.37976841879", "arrival_lat": "-38.0983771352818", "id": "6074.T0.1-V23-D-mjp-1.2.H", "departure_time": "2017-01-25 06:48:00"}, {"departure_lat": "-37.6830492642064", "name": "Broadmeadows Railway Station (Broadmeadows)", "arrival_lon": "144.916197501013", "arrival_time": "2017-01-25 07:05:00", "departure_lon": "144.919613216031", "arrival_lat": "-37.7560116950847", "id": "6156.T0.1-V40-D-mjp-1.5.R", "departure_time": "2017-01-25 06:48:00"}, {"departure_lat": "-37.9899679153812", "name": "Dandenong Railway Station (Dandenong)", "arrival_lon": "145.120534360257", "arrival_time": "2017-01-25 07:03:00", "departure_lon": "145.209725368166", "arrival_lat": "-37.9246825520153", "id": "5952.T0.1-V48-D-mjp-1.7.R", "departure_time": "2017-01-25 06:48:00"}, {"departure_lat": "-37.2582788509932", "name": "Kyneton Railway Station (Kyneton)", "arrival_lon": "144.525890123295", "arrival_time": "2017-01-25 06:57:00", "departure_lon": "144.450601588246", "arrival_lat": "-37.3587985943757", "id": "5986.T0.1-V12-D-mjp-1.15.R", "departure_time": "2017-01-25 06:49:00"}, {"departure_lat": "-37.8183342913422", "name": "Southern Cross Railway Station (Melbourne City)", "arrival_lon": "144.902020057667", "arrival_time": "2017-01-25 06:56:00", "departure_lon": "144.952524867532", "arrival_lat": "-37.8014134330439", "id": "6076.T0.1-V23-D-mjp-1.1.H", "departure_time": "2017-01-25 06:49:00"}, {"departure_lat": "-38.1985490047076", "name": "Marshall Railway Station (Marshall)", "arrival_lon": "144.358987047614", "arrival_time": "2017-01-25 06:54:00", "departure_lon": "144.35505671194", "arrival_lat": "-38.1586586335856", "id": "5881.T0.1-V23-D-mjp-1.30.R", "departure_time": "2017-01-25 06:49:00"}, {"departure_lat": "-37.8014134330439", "name": "Footscray Railway Station (Footscray)", "arrival_lon": "144.952524867532", "arrival_time": "2017-01-25 06:59:00", "departure_lon": "144.902020057667", "arrival_lat": "-37.8183342913422", "id": "5984.T0.1-V12-D-mjp-1.13.R", "departure_time": "2017-01-25 06:50:00"}, {"departure_lat": "-37.9629290891698", "name": "Little River Railway Station (Little River)", "arrival_lon": "144.60847208057", "arrival_time": "2017-01-25 06:58:00", "departure_lon": "144.498484867674", "arrival_lat": "-37.8717818287661", "id": "5878.T0.1-V23-D-mjp-1.27.R", "departure_time": "2017-01-25 06:50:00"}, {"departure_lat": "-38.0983771352818", "name": "North Shore Railway Station (North Shore)", "arrival_lon": "144.37976841879", "arrival_time": "2017-01-25 06:53:00", "departure_lon": "144.365321419105", "arrival_lat": "-38.0728312611647", "id": "5879.T0.1-V23-D-mjp-1.28.R", "departure_time": "2017-01-25 06:50:00"}, {"departure_lat": "-38.0991077095814", "name": "Bunyip Railway Station (Bunyip)", "arrival_lon": "145.674224718789", "arrival_time": "2017-01-25 06:54:00", "departure_lon": "145.7207574905", "arrival_lat": "-38.0910306197666", "id": "5953.T0.1-V48-D-mjp-1.6.R", "departure_time": "2017-01-25 06:50:00"}, {"departure_lat": "-37.7777637471456", "name": "Deer Park Railway Station (Deer Park)", "arrival_lon": "144.802188066669", "arrival_time": "2017-01-25 06:54:00", "departure_lon": "144.772303608804", "arrival_lat": "-37.7830652929363", "id": "6187.T0.1-V05-D-mjp-1.13.R", "departure_time": "2017-01-25 06:51:00"}, {"departure_lat": "-38.0983771352818", "name": "North Shore Railway Station (North Shore)", "arrival_lon": "144.352271898836", "arrival_time": "2017-01-25 06:55:00", "departure_lon": "144.365321419105", "arrival_lat": "-38.1228352344324", "id": "6074.T0.1-V23-D-mjp-1.2.H", "departure_time": "2017-01-25 06:51:00"}, {"departure_lat": "-37.8183342913422", "name": "Southern Cross Railway Station (Melbourne City)", "arrival_lon": null, "arrival_time": null, "departure_lon": "144.952524867532", "arrival_lat": null, "id": "5832.T0.1-V23-D-mjp-1.24.R", "departure_time": "2017-01-25 06:51:00"}, {"departure_lat": "-38.2158144726992", "name": "Waurn Ponds Railway Station (Waurn Ponds)", "arrival_lon": "144.35505671194", "arrival_time": "2017-01-25 06:56:00", "departure_lon": "144.30681939977", "arrival_lat": "-38.1985490047076", "id": "5873.T0.1-V23-D-mjp-1.28.R", "departure_time": "2017-01-25 06:51:00"}, {"departure_lat": "-37.5425895208628", "name": "Donnybrook Railway Station (Donnybrook)", "arrival_lon": "145.005372256037", "arrival_time": "2017-01-25 07:01:00", "departure_lon": "144.969860118554", "arrival_lat": "-37.4168610028693", "id": "5332.T0.1-V40-D-mjp-1.1.H", "departure_time": "2017-01-25 06:51:00"}, {"departure_lat": "-38.2289009105233", "name": "Camperdown Railway Station (Camperdown)", "arrival_lon": "143.586653051255", "arrival_time": "2017-01-25 07:19:00", "departure_lon": "143.150927797287", "arrival_lat": "-38.3433779184354", "id": "5412.T0.1-V51-D-mjp-1.3.R", "departure_time": "2017-01-25 06:51:00"}, {"departure_lat": "-37.5792063872414", "name": "Sunbury Railway Station (Sunbury)", "arrival_lon": "144.745372643394", "arrival_time": "2017-01-25 06:59:00", "departure_lon": "144.72816450831", "arrival_lat": "-37.4834976919689", "id": "5912.T0.1-V12-D-mjp-1.1.H", "departure_time": "2017-01-25 06:52:00"}, {"departure_lat": "-37.8321681307146", "name": "Tarneit Railway Station (Tarneit)", "arrival_lon": "144.60847208057", "arrival_time": "2017-01-25 06:59:00", "departure_lon": "144.694714384216", "arrival_lat": "-37.8717818287661", "id": "6075.T0.1-V23-D-mjp-1.3.H", "departure_time": "2017-01-25 06:52:00"}, {"departure_lat": "-37.3546770982659", "name": "Wandong Railway Station (Wandong)", "arrival_lon": "145.026310472064", "arrival_time": "2017-01-25 06:56:00", "departure_lon": "145.026415443751", "arrival_lat": "-37.3677343958931", "id": "5324.T0.1-Sht-D-mjp-1.1.H", "departure_time": "2017-01-25 06:53:00"}, {"departure_lat": "-37.7292612709136", "name": "Rockbank Railway Station (Rockbank)", "arrival_lon": "144.772303608804", "arrival_time": "2017-01-25 07:02:00", "departure_lon": "144.650631483984", "arrival_lat": "-37.7777637471456", "id": "6188.T0.1-V05-D-mjp-1.13.R", "departure_time": "2017-01-25 06:53:00"}, {"departure_lat": "-37.0628374463184", "name": "Castlemaine Railway Station (Castlemaine)", "arrival_lon": "144.450601588246", "arrival_time": "2017-01-25 07:11:00", "departure_lon": "144.213799025491", "arrival_lat": "-37.2582788509932", "id": "5997.T0.1-V12-D-mjp-1.16.R", "departure_time": "2017-01-25 06:53:00"}, {"departure_lat": "-38.0728312611647", "name": "Corio Railway Station (Corio)", "arrival_lon": "144.414404294664", "arrival_time": "2017-01-25 06:57:00", "departure_lon": "144.37976841879", "arrival_lat": "-38.0224276368235", "id": "5879.T0.1-V23-D-mjp-1.28.R", "departure_time": "2017-01-25 06:53:00"}, {"departure_lat": "-37.7830652929363", "name": "Ardeer Railway Station (Ardeer)", "arrival_lon": "144.832878204953", "arrival_time": "2017-01-25 07:01:00", "departure_lon": "144.802188066669", "arrival_lat": "-37.7885363319246", "id": "6187.T0.1-V05-D-mjp-1.13.R", "departure_time": "2017-01-25 06:54:00"}, {"departure_lat": "-37.6875782110303", "name": "Bacchus Marsh Railway Station (Maddingley)", "arrival_lon": "144.902020057667", "arrival_time": "2017-01-25 07:21:00", "departure_lon": "144.436785160486", "arrival_lat": "-37.8014134330439", "id": "6189.T0.1-V05-D-mjp-1.15.R", "departure_time": "2017-01-25 06:54:00"}, {"departure_lat": "-38.1586586335856", "name": "South Geelong Railway Station (South Geelong)", "arrival_lon": "144.35498911182", "arrival_time": "2017-01-25 06:59:00", "departure_lon": "144.358987047614", "arrival_lat": "-38.1442421089254", "id": "5881.T0.1-V23-D-mjp-1.30.R", "departure_time": "2017-01-25 06:54:00"}, {"departure_lat": "-37.9899679153812", "name": "Dandenong Railway Station (Dandenong)", "arrival_lon": "145.486367676332", "arrival_time": "2017-01-25 07:15:00", "departure_lon": "145.209725368166", "arrival_lat": "-38.0806138269723", "id": "5796.T0.1-V48-D-mjp-1.1.H", "departure_time": "2017-01-25 06:54:00"}, {"departure_lat": "-38.0910306197666", "name": "Garfield Railway Station (Garfield)", "arrival_lon": "145.628234301935", "arrival_time": "2017-01-25 06:58:00", "departure_lon": "145.674224718789", "arrival_lat": "-38.0849962573238", "id": "5953.T0.1-V48-D-mjp-1.6.R", "departure_time": "2017-01-25 06:54:00"}, {"departure_lat": "-38.1228352344324", "name": "North Geelong Railway Station (North Geelong)", "arrival_lon": "144.35498911182", "arrival_time": "2017-01-25 07:05:00", "departure_lon": "144.352271898836", "arrival_lat": "-38.1442421089254", "id": "6074.T0.1-V23-D-mjp-1.2.H", "departure_time": "2017-01-25 06:55:00"}, {"departure_lat": "-37.3677343958931", "name": "Heathcote Junction Railway Station (Heathcote Junction)", "arrival_lon": "145.005372256037", "arrival_time": "2017-01-25 07:02:00", "departure_lon": "145.026310472064", "arrival_lat": "-37.4168610028693", "id": "5324.T0.1-Sht-D-mjp-1.1.H", "departure_time": "2017-01-25 06:56:00"}, {"departure_lat": "-37.5587914823897", "name": "Ballarat Railway Station (Ballarat Central)", "arrival_lon": "143.822054600905", "arrival_time": "2017-01-25 07:02:00", "departure_lon": "143.859457427766", "arrival_lat": "-37.5400850057193", "id": "6018.T0.1-V05-D-mjp-1.1.H", "departure_time": "2017-01-25 06:56:00"}, {"departure_lat": "-37.8014134330439", "name": "Footscray Railway Station (Footscray)", "arrival_lon": "144.832878204953", "arrival_time": "2017-01-25 07:02:00", "departure_lon": "144.902020057667", "arrival_lat": "-37.7885363319246", "id": "6076.T0.1-V23-D-mjp-1.1.H", "departure_time": "2017-01-25 06:56:00"}, {"departure_lat": "-38.1985490047076", "name": "Marshall Railway Station (Marshall)", "arrival_lon": "144.358987047614", "arrival_time": "2017-01-25 07:01:00", "departure_lon": "144.35505671194", "arrival_lat": "-38.1586586335856", "id": "5873.T0.1-V23-D-mjp-1.28.R", "departure_time": "2017-01-25 06:56:00"}, {"departure_lat": "-37.0247287252427", "name": "Seymour Railway Station (Seymour)", "arrival_lon": "145.102997284521", "arrival_time": "2017-01-25 07:03:00", "departure_lon": "145.137728616954", "arrival_lat": "-37.0923345407483", "id": "6157.T0.1-V40-D-mjp-1.5.R", "departure_time": "2017-01-25 06:56:00"}, {"departure_lat": "-38.1767146401405", "name": "Moe Railway Station (Moe)", "arrival_lon": "145.933085250289", "arrival_time": "2017-01-25 07:11:00", "departure_lon": "146.262697151591", "arrival_lat": "-38.1652241762333", "id": "5954.T0.1-V48-D-mjp-1.8.R", "departure_time": "2017-01-25 06:56:00"}, {"departure_lat": "-37.8183342913422", "name": "Southern Cross Railway Station (Melbourne City)", "arrival_lon": null, "arrival_time": null, "departure_lon": "144.952524867532", "arrival_lat": null, "id": "6186.T0.1-V05-D-mjp-1.13.R", "departure_time": "2017-01-25 06:57:00"}, {"departure_lat": "-37.3587985943757", "name": "Woodend Railway Station (Woodend)", "arrival_lon": "144.561396853042", "arrival_time": "2017-01-25 07:03:00", "departure_lon": "144.525890123295", "arrival_lat": "-37.4235733109544", "id": "5986.T0.1-V12-D-mjp-1.15.R", "departure_time": "2017-01-25 06:57:00"}, {"departure_lat": "-37.7885363319246", "name": "Sunshine Railway Station (Sunshine)", "arrival_lon": "144.902020057667", "arrival_time": "2017-01-25 07:04:00", "departure_lon": "144.832878204953", "arrival_lat": "-37.8014134330439", "id": "5833.T0.1-V23-D-mjp-1.25.R", "departure_time": "2017-01-25 06:57:00"}, {"departure_lat": "-38.0224276368235", "name": "Lara Railway Station (Lara)", "arrival_lon": "144.832878204953", "arrival_time": "2017-01-25 07:25:00", "departure_lon": "144.414404294664", "arrival_lat": "-37.7885363319246", "id": "5879.T0.1-V23-D-mjp-1.28.R", "departure_time": "2017-01-25 06:57:00"}, {"departure_lat": "-37.8717818287661", "name": "Wyndham Vale Railway Station (Wyndham Vale)", "arrival_lon": "144.694714384216", "arrival_time": "2017-01-25 07:04:00", "departure_lon": "144.60847208057", "arrival_lat": "-37.8321681307146", "id": "5878.T0.1-V23-D-mjp-1.27.R", "departure_time": "2017-01-25 06:58:00"}, {"departure_lat": "-37.8183342913422", "name": "Southern Cross Railway Station (Melbourne City)", "arrival_lon": null, "arrival_time": null, "departure_lon": "144.952524867532", "arrival_lat": null, "id": "5951.T0.1-V48-D-mjp-1.6.R", "departure_time": "2017-01-25 06:58:00"}, {"departure_lat": "-38.0849962573238", "name": "Tynong Railway Station (Tynong)", "arrival_lon": "145.571665727089", "arrival_time": "2017-01-25 07:02:00", "departure_lon": "145.628234301935", "arrival_lat": "-38.0815915533358", "id": "5953.T0.1-V48-D-mjp-1.6.R", "departure_time": "2017-01-25 06:58:00"}, {"departure_lat": "-36.6131479408411", "name": "Murchison East Railway Station (Murchison East)", "arrival_lon": "145.160356658346", "arrival_time": "2017-01-25 07:14:00", "departure_lon": "145.240635561978", "arrival_lat": "-36.7854641001148", "id": "5325.T0.1-Sht-D-mjp-1.2.H", "departure_time": "2017-01-25 06:59:00"}, {"departure_lat": "-38.1031027232593", "name": "Sale Railway Station (Sale)", "arrival_lon": "146.786966372164", "arrival_time": "2017-01-25 07:18:00", "departure_lon": "147.054805133913", "arrival_lat": "-38.1564036678035", "id": "5318.T0.1-V08-D-mjp-1.1.H", "departure_time": "2017-01-25 06:59:00"}, {"departure_lat": "-37.4834976919689", "name": "Clarkefield Railway Station (Clarkefield)", "arrival_lon": "144.679830706708", "arrival_time": "2017-01-25 07:04:00", "departure_lon": "144.745372643394", "arrival_lat": "-37.4651237881784", "id": "5912.T0.1-V12-D-mjp-1.1.H", "departure_time": "2017-01-25 06:59:00"}, {"departure_lat": "-37.8183342913422", "name": "Southern Cross Railway Station (Melbourne City)", "arrival_lon": null, "arrival_time": null, "departure_lon": "144.952524867532", "arrival_lat": null, "id": "5984.T0.1-V12-D-mjp-1.13.R", "departure_time": "2017-01-25 06:59:00"}, {"departure_lat": "-37.8717818287661", "name": "Wyndham Vale Railway Station (Wyndham Vale)", "arrival_lon": null, "arrival_time": null, "departure_lon": "144.60847208057", "arrival_lat": null, "id": "6075.T0.1-V23-D-mjp-1.3.H", "departure_time": "2017-01-25 06:59:00"}, {"departure_lat": "-38.1442421089254", "name": "Geelong Railway Station (Geelong)", "arrival_lon": "144.352271898836", "arrival_time": "2017-01-25 07:02:00", "departure_lon": "144.35498911182", "arrival_lat": "-38.1228352344324", "id": "5881.T0.1-V23-D-mjp-1.30.R", "departure_time": "2017-01-25 06:59:00"}, {"departure_lat": "-36.706341584195", "name": "Epsom Railway Station (Epsom)", "arrival_lon": "144.283008928886", "arrival_time": "2017-01-25 07:10:00", "departure_lon": "144.321039539468", "arrival_lat": "-36.7656697308233", "id": "5999.T0.1-V12-D-mjp-1.15.R", "departure_time": "2017-01-25 07:00:00"}, {"departure_lat": "-37.7885363319246", "name": "Sunshine Railway Station (Sunshine)", "arrival_lon": "144.902020057667", "arrival_time": "2017-01-25 07:07:00", "departure_lon": "144.832878204953", "arrival_lat": "-37.8014134330439", "id": "6187.T0.1-V05-D-mjp-1.13.R", "departure_time": "2017-01-25 07:01:00"}, {"departure_lat": "-38.1586586335856", "name": "South Geelong Railway Station (South Geelong)", "arrival_lon": "144.35498911182", "arrival_time": "2017-01-25 07:06:00", "departure_lon": "144.358987047614", "arrival_lat": "-38.1442421089254", "id": "5873.T0.1-V23-D-mjp-1.28.R", "departure_time": "2017-01-25 07:01:00"}, {"departure_lat": "-37.4168610028693", "name": "Wallan Railway Station (Wallan)", "arrival_lon": "145.026310472064", "arrival_time": "2017-01-25 07:06:00", "departure_lon": "145.005372256037", "arrival_lat": "-37.3677343958931", "id": "5332.T0.1-V40-D-mjp-1.1.H", "departure_time": "2017-01-25 07:01:00"}, {"departure_lat": "-37.8183342913422", "name": "Southern Cross Railway Station (Melbourne City)", "arrival_lon": "144.919613216031", "arrival_time": "2017-01-25 07:30:00", "departure_lon": "144.952524867532", "arrival_lat": "-37.6830492642064", "id": "5333.T0.1-V40-D-mjp-1.1.H", "departure_time": "2017-01-25 07:01:00"}, {"departure_lat": "-37.4168610028693", "name": "Wallan Railway Station (Wallan)", "arrival_lon": "144.969860118554", "arrival_time": "2017-01-25 07:11:00", "departure_lon": "145.005372256037", "arrival_lat": "-37.5425895208628", "id": "5324.T0.1-Sht-D-mjp-1.1.H", "departure_time": "2017-01-25 07:02:00"}, {"departure_lat": "-37.5400850057193", "name": "Wendouree Railway Station (Wendouree)", "arrival_lon": null, "arrival_time": null, "departure_lon": "143.822054600905", "arrival_lat": null, "id": "6018.T0.1-V05-D-mjp-1.1.H", "departure_time": "2017-01-25 07:02:00"}, {"departure_lat": "-37.7777637471456", "name": "Deer Park Railway Station (Deer Park)", "arrival_lon": "144.802188066669", "arrival_time": "2017-01-25 07:05:00", "departure_lon": "144.772303608804", "arrival_lat": "-37.7830652929363", "id": "6188.T0.1-V05-D-mjp-1.13.R", "departure_time": "2017-01-25 07:02:00"}, {"departure_lat": "-37.6042995115262", "name": "Ballan Railway Station (Ballan)", "arrival_lon": "144.436785160486", "arrival_time": "2017-01-25 07:21:00", "departure_lon": "144.225448027583", "arrival_lat": "-37.6875782110303", "id": "6214.T0.1-V05-D-mjp-1.17.R", "departure_time": "2017-01-25 07:02:00"}, {"departure_lat": "-37.7885363319246", "name": "Sunshine Railway Station (Sunshine)", "arrival_lon": "144.772303608804", "arrival_time": "2017-01-25 07:06:00", "departure_lon": "144.832878204953", "arrival_lat": "-37.7777637471456", "id": "6076.T0.1-V23-D-mjp-1.1.H", "departure_time": "2017-01-25 07:02:00"}, {"departure_lat": "-38.1228352344324", "name": "North Geelong Railway Station (North Geelong)", "arrival_lon": "144.414404294664", "arrival_time": "2017-01-25 07:08:00", "departure_lon": "144.352271898836", "arrival_lat": "-38.0224276368235", "id": "5881.T0.1-V23-D-mjp-1.30.R", "departure_time": "2017-01-25 07:02:00"}, {"departure_lat": "-38.0815915533358", "name": "Nar Nar Goon Railway Station (Nar Nar Goon)", "arrival_lon": "145.486367676332", "arrival_time": "2017-01-25 07:10:00", "departure_lon": "145.571665727089", "arrival_lat": "-38.0806138269723", "id": "5953.T0.1-V48-D-mjp-1.6.R", "departure_time": "2017-01-25 07:02:00"}, {"departure_lat": "-37.4235733109544", "name": "Macedon Railway Station (Macedon)", "arrival_lon": "144.598721566871", "arrival_time": "2017-01-25 07:07:00", "departure_lon": "144.561396853042", "arrival_lat": "-37.4588254969165", "id": "5986.T0.1-V12-D-mjp-1.15.R", "departure_time": "2017-01-25 07:03:00"}, {"departure_lat": "-37.0923345407483", "name": "Tallarook Railway Station (Tallarook)", "arrival_lon": "145.043007902139", "arrival_time": "2017-01-25 07:14:00", "departure_lon": "145.102997284521", "arrival_lat": "-37.2072004909244", "id": "6157.T0.1-V40-D-mjp-1.5.R", "departure_time": "2017-01-25 07:03:00"}, {"departure_lat": "-37.9246825520153", "name": "Clayton Railway Station (Clayton)", "arrival_lon": "145.042524781036", "arrival_time": "2017-01-25 07:18:00", "departure_lon": "145.120534360257", "arrival_lat": "-37.8774594614914", "id": "5952.T0.1-V48-D-mjp-1.7.R", "departure_time": "2017-01-25 07:03:00"}, {"departure_lat": "-37.6875782110303", "name": "Bacchus Marsh Railway Station (Maddingley)", "arrival_lon": "144.572524145218", "arrival_time": "2017-01-25 07:15:00", "departure_lon": "144.436785160486", "arrival_lat": "-37.7032933463858", "id": "6213.T0.1-V05-D-mjp-1.16.R", "departure_time": "2017-01-25 07:04:00"}, {"departure_lat": "-37.4651237881784", "name": "Riddells Creek Railway Station (Riddells Creek)", "arrival_lon": "144.598721566871", "arrival_time": "2017-01-25 07:10:00", "departure_lon": "144.679830706708", "arrival_lat": "-37.4588254969165", "id": "5912.T0.1-V12-D-mjp-1.1.H", "departure_time": "2017-01-25 07:04:00"}, {"departure_lat": "-37.8014134330439", "name": "Footscray Railway Station (Footscray)", "arrival_lon": "144.952524867532", "arrival_time": "2017-01-25 07:13:00", "departure_lon": "144.902020057667", "arrival_lat": "-37.8183342913422", "id": "5833.T0.1-V23-D-mjp-1.25.R", "departure_time": "2017-01-25 07:04:00"}, {"departure_lat": "-37.8321681307146", "name": "Tarneit Railway Station (Tarneit)", "arrival_lon": "144.902020057667", "arrival_time": "2017-01-25 07:28:00", "departure_lon": "144.694714384216", "arrival_lat": "-37.8014134330439", "id": "5878.T0.1-V23-D-mjp-1.27.R", "departure_time": "2017-01-25 07:04:00"}, {"departure_lat": "-36.1556366325643", "name": "Chiltern Railway Station (Chiltern)", "arrival_lon": "146.470416950047", "arrival_time": "2017-01-25 07:14:00", "departure_lon": "146.611374754964", "arrival_lat": "-36.1858934040116", "id": "5302.T0.1-V01-D-mjp-1.1.H", "departure_time": "2017-01-25 07:05:00"},